,city,state_id,lng,lat,Location
0,New York,NY,-73.9249,40.6943,"New York, NY"
1,Los Angeles,CA,-118.4068,34.1139,"Los Angeles, CA"
2,Chicago,IL,-87.6862,41.8373,"Chicago, IL"
3,Miami,FL,-80.2102,25.7839,"Miami, FL"
4,Dallas,TX,-96.7662,32.7936,"Dallas, TX"
5,Philadelphia,PA,-75.1339,40.0077,"Philadelphia, PA"
6,Houston,TX,-95.3889,29.7863,"Houston, TX"
7,Atlanta,GA,-84.4224,33.7627,"Atlanta, GA"
8,Washington,DC,-77.0163,38.9047,"Washington, DC"
9,Boston,MA,-71.0846,42.3188,"Boston, MA"
10,Phoenix,AZ,-112.0891,33.5722,"Phoenix, AZ"
11,Seattle,WA,-122.3244,47.6211,"Seattle, WA"
12,San Francisco,CA,-122.443,37.7562,"San Francisco, CA"
13,Detroit,MI,-83.1024,42.3834,"Detroit, MI"
14,San Diego,CA,-117.1225,32.8312,"San Diego, CA"
15,Minneapolis,MN,-93.2678,44.9635,"Minneapolis, MN"
16,Tampa,FL,-82.4451,27.9942,"Tampa, FL"
17,Denver,CO,-104.8759,39.7621,"Denver, CO"
18,Brooklyn,NY,-73.9496,40.6501,"Brooklyn, NY"
19,Queens,NY,-73.7976,40.7498,"Queens, NY"
20,Riverside,CA,-117.3948,33.9381,"Riverside, CA"
21,Baltimore,MD,-76.6144,39.3051,"Baltimore, MD"
22,Las Vegas,NV,-115.2654,36.2333,"Las Vegas, NV"
23,Portland,OR,-122.65,45.5372,"Portland, OR"
24,San Antonio,TX,-98.5253,29.4658,"San Antonio, TX"
25,St. Louis,MO,-90.2451,38.6358,"St. Louis, MO"
26,Sacramento,CA,-121.4683,38.5667,"Sacramento, CA"
27,Orlando,FL,-81.3369,28.4772,"Orlando, FL"
28,San Jose,CA,-121.8486,37.3019,"San Jose, CA"
29,Cleveland,OH,-81.6804,41.4767,"Cleveland, OH"
30,Pittsburgh,PA,-79.9762,40.4396,"Pittsburgh, PA"
31,Austin,TX,-97.7522,30.3004,"Austin, TX"
32,Cincinnati,OH,-84.5061,39.1413,"Cincinnati, OH"
33,Kansas City,MO,-94.5541,39.1239,"Kansas City, MO"
34,Manhattan,NY,-73.9662,40.7834,"Manhattan, NY"
35,Indianapolis,IN,-86.1458,39.7771,"Indianapolis, IN"
36,Columbus,OH,-82.985,39.9862,"Columbus, OH"
37,Charlotte,NC,-80.8304,35.208,"Charlotte, NC"
38,Virginia Beach,VA,-76.0435,36.7335,"Virginia Beach, VA"
39,Bronx,NY,-73.8662,40.8501,"Bronx, NY"
40,Milwaukee,WI,-87.9673,43.0642,"Milwaukee, WI"
41,Providence,RI,-71.4187,41.823,"Providence, RI"
42,Jacksonville,FL,-81.6749,30.3322,"Jacksonville, FL"
43,Salt Lake City,UT,-111.9306,40.7777,"Salt Lake City, UT"
44,Nashville,TN,-86.7843,36.1715,"Nashville, TN"
45,Richmond,VA,-77.4756,37.5295,"Richmond, VA"
46,Memphis,TN,-89.9773,35.1046,"Memphis, TN"
47,Raleigh,NC,-78.6435,35.8325,"Raleigh, NC"
48,New Orleans,LA,-89.9288,30.0687,"New Orleans, LA"
49,Louisville,KY,-85.6485,38.1663,"Louisville, KY"
50,Oklahoma City,OK,-97.5136,35.4676,"Oklahoma City, OK"
51,Bridgeport,CT,-73.1953,41.1918,"Bridgeport, CT"
52,Buffalo,NY,-78.8487,42.9016,"Buffalo, NY"
53,Fort Worth,TX,-97.3473,32.7811,"Fort Worth, TX"
54,Hartford,CT,-72.6834,41.7661,"Hartford, CT"
55,Tucson,AZ,-110.8782,32.1545,"Tucson, AZ"
56,Omaha,NE,-96.0522,41.2627,"Omaha, NE"
57,El Paso,TX,-106.4309,31.8479,"El Paso, TX"
58,Honolulu,HI,-157.846,21.3294,"Honolulu, HI"
59,McAllen,TX,-98.2471,26.2273,"McAllen, TX"
60,Albuquerque,NM,-106.6464,35.1053,"Albuquerque, NM"
61,Birmingham,AL,-86.7987,33.5277,"Birmingham, AL"
62,Sarasota,FL,-82.5431,27.3386,"Sarasota, FL"
63,Dayton,OH,-84.1998,39.7797,"Dayton, OH"
64,Rochester,NY,-77.6162,43.168,"Rochester, NY"
65,Fresno,CA,-119.7941,36.7831,"Fresno, CA"
66,Allentown,PA,-75.4756,40.5961,"Allentown, PA"
67,Tulsa,OK,-95.9042,36.1284,"Tulsa, OK"
68,Cape Coral,FL,-81.9956,26.6446,"Cape Coral, FL"
69,Concord,CA,-122.0016,37.9722,"Concord, CA"
70,Colorado Springs,CO,-104.7606,38.8674,"Colorado Springs, CO"
71,Charleston,SC,-79.9628,32.8153,"Charleston, SC"
72,Springfield,MA,-72.5395,42.1155,"Springfield, MA"
73,Grand Rapids,MI,-85.6562,42.962,"Grand Rapids, MI"
74,Mission Viejo,CA,-117.655,33.6095,"Mission Viejo, CA"
75,Albany,NY,-73.7987,42.6664,"Albany, NY"
76,Knoxville,TN,-83.9496,35.9692,"Knoxville, TN"
77,Bakersfield,CA,-119.0359,35.3529,"Bakersfield, CA"
78,Ogden,UT,-111.9682,41.2278,"Ogden, UT"
79,Baton Rouge,LA,-91.131,30.4418,"Baton Rouge, LA"
80,Akron,OH,-81.5219,41.0798,"Akron, OH"
81,New Haven,CT,-72.9246,41.3112,"New Haven, CT"
82,Columbia,SC,-80.9037,34.0376,"Columbia, SC"
83,Mesa,AZ,-111.718,33.4017,"Mesa, AZ"
84,Palm Bay,FL,-80.6627,27.955,"Palm Bay, FL"
85,Provo,UT,-111.6457,40.2457,"Provo, UT"
86,Worcester,MA,-71.8079,42.2705,"Worcester, MA"
87,Murrieta,CA,-117.1909,33.572,"Murrieta, CA"
88,Greenville,SC,-82.3647,34.8353,"Greenville, SC"
89,Wichita,KS,-97.3442,37.6896,"Wichita, KS"
90,Toledo,OH,-83.5822,41.6639,"Toledo, OH"
91,Staten Island,NY,-74.1496,40.5834,"Staten Island, NY"
92,Des Moines,IA,-93.6105,41.5725,"Des Moines, IA"
93,Long Beach,CA,-118.1675,33.7981,"Long Beach, CA"
94,Port St. Lucie,FL,-80.3883,27.2796,"Port St. Lucie, FL"
95,Denton,TX,-97.1419,33.2176,"Denton, TX"
96,Madison,WI,-89.3931,43.0826,"Madison, WI"
97,Reno,NV,-119.8483,39.5497,"Reno, NV"
98,Harrisburg,PA,-76.8843,40.2752,"Harrisburg, PA"
99,Little Rock,AR,-92.3576,34.7256,"Little Rock, AR"
100,Oakland,CA,-122.2165,37.7903,"Oakland, CA"
101,Durham,NC,-78.9031,35.9794,"Durham, NC"
102,Winston-Salem,NC,-80.2611,36.1029,"Winston-Salem, NC"
103,Bonita Springs,FL,-81.7861,26.3559,"Bonita Springs, FL"
104,Indio,CA,-116.2346,33.7346,"Indio, CA"
105,Palm Coast,FL,-81.246,29.5392,"Palm Coast, FL"
106,Chattanooga,TN,-85.2488,35.0657,"Chattanooga, TN"
107,Spokane,WA,-117.433,47.6671,"Spokane, WA"
108,Syracuse,NY,-76.1438,43.0409,"Syracuse, NY"
109,Lancaster,PA,-76.3012,40.0421,"Lancaster, PA"
110,Arlington,TX,-97.125,32.6998,"Arlington, TX"
111,Stockton,CA,-121.3109,37.9765,"Stockton, CA"
112,Poughkeepsie,NY,-73.921,41.6949,"Poughkeepsie, NY"
113,Augusta,GA,-82.0708,33.3645,"Augusta, GA"
114,Boise,ID,-116.2312,43.6007,"Boise, ID"
115,Oxnard,CA,-119.1815,34.1963,"Oxnard, CA"
116,Scranton,PA,-75.6649,41.4044,"Scranton, PA"
117,Modesto,CA,-121.0028,37.6374,"Modesto, CA"
118,Kissimmee,FL,-81.4164,28.3042,"Kissimmee, FL"
119,Aurora,CO,-104.7273,39.7087,"Aurora, CO"
120,Youngstown,OH,-80.6463,41.0993,"Youngstown, OH"
121,Fayetteville,AR,-94.166,36.0713,"Fayetteville, AR"
122,Anaheim,CA,-117.8572,33.839,"Anaheim, CA"
123,Pensacola,FL,-87.1886,30.4427,"Pensacola, FL"
124,Victorville,CA,-117.3536,34.5277,"Victorville, CA"
125,Lancaster,CA,-118.1753,34.6935,"Lancaster, CA"
126,Greensboro,NC,-79.8269,36.0956,"Greensboro, NC"
127,Corpus Christi,TX,-97.3755,27.726,"Corpus Christi, TX"
128,Fort Wayne,IN,-85.1437,41.0886,"Fort Wayne, IN"
129,Santa Ana,CA,-117.8819,33.7366,"Santa Ana, CA"
130,Flint,MI,-83.6922,43.0235,"Flint, MI"
131,San Juan,PR,-66.0636,18.4037,"San Juan, PR"
132,Fayetteville,NC,-78.9776,35.0846,"Fayetteville, NC"
133,Jackson,MS,-90.2124,32.3163,"Jackson, MS"
134,Santa Rosa,CA,-122.7067,38.4458,"Santa Rosa, CA"
135,Lansing,MI,-84.5601,42.7142,"Lansing, MI"
136,Ann Arbor,MI,-83.7312,42.2755,"Ann Arbor, MI"
137,Henderson,NV,-115.038,36.0133,"Henderson, NV"
138,Huntsville,AL,-86.6412,34.6988,"Huntsville, AL"
139,Lexington,KY,-84.4587,38.0423,"Lexington, KY"
140,Mobile,AL,-88.1162,30.6783,"Mobile, AL"
141,Fort Collins,CO,-105.0656,40.5478,"Fort Collins, CO"
142,Asheville,NC,-82.5536,35.5704,"Asheville, NC"
143,Santa Clarita,CA,-118.4964,34.4175,"Santa Clarita, CA"
144,St. Paul,MN,-93.104,44.9477,"St. Paul, MN"
145,Antioch,CA,-121.7958,37.9789,"Antioch, CA"
146,Lakeland,FL,-81.9545,28.0556,"Lakeland, FL"
147,Trenton,NJ,-74.7641,40.2236,"Trenton, NJ"
148,Lincoln,NE,-96.6788,40.809,"Lincoln, NE"
149,Springfield,MO,-93.2916,37.1943,"Springfield, MO"
150,Plano,TX,-96.7487,33.0502,"Plano, TX"
151,Irvine,CA,-117.7738,33.6772,"Irvine, CA"
152,Davenport,IA,-90.6052,41.5563,"Davenport, IA"
153,Rockford,IL,-89.0641,42.2597,"Rockford, IL"
154,Newark,NJ,-74.1725,40.7245,"Newark, NJ"
155,South Bend,IN,-86.2696,41.6767,"South Bend, IN"
156,Shreveport,LA,-93.7956,32.4656,"Shreveport, LA"
157,Round Lake Beach,IL,-88.0811,42.379,"Round Lake Beach, IL"
158,Savannah,GA,-81.1784,32.0281,"Savannah, GA"
159,Myrtle Beach,SC,-78.8843,33.7096,"Myrtle Beach, SC"
160,Chula Vista,CA,-117.0145,32.6281,"Chula Vista, CA"
161,Eugene,OR,-123.1173,44.0563,"Eugene, OR"
162,Canton,OH,-81.3677,40.8075,"Canton, OH"
163,Lubbock,TX,-101.8878,33.5659,"Lubbock, TX"
164,Reading,PA,-75.9267,40.34,"Reading, PA"
165,Winter Haven,FL,-81.7017,28.0118,"Winter Haven, FL"
166,Salem,OR,-123.0246,44.9231,"Salem, OR"
167,St. Petersburg,FL,-82.6652,27.7931,"St. Petersburg, FL"
168,Lafayette,LA,-92.0323,30.2084,"Lafayette, LA"
169,Laredo,TX,-99.4875,27.5629,"Laredo, TX"
170,Jersey City,NJ,-74.0682,40.7161,"Jersey City, NJ"
171,Concord,NC,-80.6366,35.3933,"Concord, NC"
172,Columbus,GA,-84.8771,32.51,"Columbus, GA"
173,Chandler,AZ,-111.8516,33.2826,"Chandler, AZ"
174,McKinney,TX,-96.6669,33.2015,"McKinney, TX"
175,Scottsdale,AZ,-111.8651,33.6872,"Scottsdale, AZ"
176,Killeen,TX,-97.7296,31.0754,"Killeen, TX"
177,Tallahassee,FL,-84.2526,30.4551,"Tallahassee, FL"
178,Peoria,IL,-89.6153,40.752,"Peoria, IL"
179,Wilmington,NC,-77.8866,34.21,"Wilmington, NC"
180,Montgomery,AL,-86.2666,32.3473,"Montgomery, AL"
181,Gilbert,AZ,-111.7463,33.3101,"Gilbert, AZ"
182,Glendale,AZ,-112.2311,33.5791,"Glendale, AZ"
183,North Las Vegas,NV,-115.0901,36.288,"North Las Vegas, NV"
184,Anchorage,AK,-149.1091,61.1508,"Anchorage, AK"
185,Chesapeake,VA,-76.3024,36.6778,"Chesapeake, VA"
186,Barnstable Town,MA,-70.3599,41.6722,"Barnstable Town, MA"
187,Norfolk,VA,-76.259,36.8945,"Norfolk, VA"
188,Fremont,CA,-121.9852,37.5265,"Fremont, CA"
189,Kennewick,WA,-119.1732,46.1978,"Kennewick, WA"
190,Garland,TX,-96.6305,32.91,"Garland, TX"
191,Irving,TX,-96.9702,32.8584,"Irving, TX"
192,Visalia,CA,-119.3269,36.3276,"Visalia, CA"
193,Atlantic City,NJ,-74.4527,39.3797,"Atlantic City, NJ"
194,Nashua,NH,-71.491,42.7491,"Nashua, NH"
195,Paradise,NV,-115.1369,36.0807,"Paradise, NV"
196,Hialeah,FL,-80.3046,25.8696,"Hialeah, FL"
197,York,PA,-76.7315,39.9651,"York, PA"
198,Arlington,VA,-77.1011,38.8786,"Arlington, VA"
199,Evansville,IN,-87.5341,37.9881,"Evansville, IN"
200,Avondale,AZ,-112.3236,33.3858,"Avondale, AZ"
201,Brownsville,TX,-97.4565,25.998,"Brownsville, TX"
202,Gulfport,MS,-89.0703,30.4271,"Gulfport, MS"
203,Appleton,WI,-88.3891,44.2779,"Appleton, WI"
204,Bremerton,WA,-122.7122,47.5436,"Bremerton, WA"
205,Hickory,NC,-81.323,35.7425,"Hickory, NC"
206,Tacoma,WA,-122.4531,47.2431,"Tacoma, WA"
207,San Bernardino,CA,-117.2946,34.1417,"San Bernardino, CA"
208,College Station,TX,-96.296,30.5852,"College Station, TX"
209,Kalamazoo,MI,-85.5882,42.2749,"Kalamazoo, MI"
210,Thousand Oaks,CA,-118.8755,34.1914,"Thousand Oaks, CA"
211,Roanoke,VA,-79.958,37.2785,"Roanoke, VA"
212,Fontana,CA,-117.4599,34.0968,"Fontana, CA"
213,Moreno Valley,CA,-117.2045,33.9244,"Moreno Valley, CA"
214,North Port,FL,-82.1975,27.0577,"North Port, FL"
215,Fargo,ND,-96.8292,46.8652,"Fargo, ND"
216,Green Bay,WI,-87.9896,44.515,"Green Bay, WI"
217,Amarillo,TX,-101.8311,35.1988,"Amarillo, TX"
218,Portland,ME,-70.2715,43.6773,"Portland, ME"
219,Santa Barbara,CA,-119.7202,34.4285,"Santa Barbara, CA"
220,Gainesville,FL,-82.3458,29.6804,"Gainesville, FL"
221,Olympia,WA,-122.8959,47.0417,"Olympia, WA"
222,Frisco,TX,-96.8215,33.1555,"Frisco, TX"
223,Yonkers,NY,-73.8674,40.9466,"Yonkers, NY"
224,Norwich,CT,-72.0882,41.5495,"Norwich, CT"
225,Spring Valley,NV,-115.2619,36.0987,"Spring Valley, NV"
226,Glendale,CA,-118.2468,34.1818,"Glendale, CA"
227,Huntington Beach,CA,-118.0025,33.696,"Huntington Beach, CA"
228,Deltona,FL,-81.2137,28.905,"Deltona, FL"
229,Aurora,IL,-88.2901,41.7637,"Aurora, IL"
230,Tempe,AZ,-111.9318,33.3881,"Tempe, AZ"
231,Overland Park,KS,-94.687,38.887,"Overland Park, KS"
232,Grand Prairie,TX,-97.0209,32.6872,"Grand Prairie, TX"
233,Sunrise Manor,NV,-115.049,36.1785,"Sunrise Manor, NV"
234,Waco,TX,-97.1881,31.5598,"Waco, TX"
235,Salinas,CA,-121.6317,36.6884,"Salinas, CA"
236,Waterbury,CT,-73.0361,41.5583,"Waterbury, CT"
237,Clarksville,TN,-87.342,36.5695,"Clarksville, TN"
238,Cedar Rapids,IA,-91.6782,41.9665,"Cedar Rapids, IA"
239,Sioux Falls,SD,-96.732,43.5397,"Sioux Falls, SD"
240,Huntington,WV,-82.4344,38.4109,"Huntington, WV"
241,Ontario,CA,-117.6064,34.0393,"Ontario, CA"
242,Hagerstown,MD,-77.7217,39.6401,"Hagerstown, MD"
243,Erie,PA,-80.0733,42.1168,"Erie, PA"
244,Vancouver,WA,-122.5967,45.6366,"Vancouver, WA"
245,Nampa,ID,-116.5631,43.5845,"Nampa, ID"
246,Spartanburg,SC,-81.9257,34.9437,"Spartanburg, SC"
247,Gastonia,NC,-81.1853,35.2494,"Gastonia, NC"
248,Fort Lauderdale,FL,-80.1464,26.1412,"Fort Lauderdale, FL"
249,Lorain,OH,-82.184,41.4409,"Lorain, OH"
250,Murfreesboro,TN,-86.4119,35.8492,"Murfreesboro, TN"
251,High Point,NC,-79.9938,35.9907,"High Point, NC"
252,Newport News,VA,-76.5185,37.1051,"Newport News, VA"
253,Rancho Cucamonga,CA,-117.5666,34.1248,"Rancho Cucamonga, CA"
254,Hemet,CA,-116.9969,33.7341,"Hemet, CA"
255,Santa Cruz,CA,-122.0346,36.9789,"Santa Cruz, CA"
256,Danbury,CT,-73.471,41.4016,"Danbury, CT"
257,Peoria,AZ,-112.2989,33.7844,"Peoria, AZ"
258,Oceanside,CA,-117.3083,33.2247,"Oceanside, CA"
259,Elk Grove,CA,-121.3842,38.416,"Elk Grove, CA"
260,Pembroke Pines,FL,-80.3382,26.0128,"Pembroke Pines, FL"
261,Vallejo,CA,-122.2358,38.1133,"Vallejo, CA"
262,Garden Grove,CA,-117.9601,33.7787,"Garden Grove, CA"
263,Medford,OR,-122.8537,42.3372,"Medford, OR"
264,Cary,NC,-78.8191,35.782,"Cary, NC"
265,Marysville,WA,-122.1561,48.0809,"Marysville, WA"
266,Corona,CA,-117.5649,33.8616,"Corona, CA"
267,Ocala,FL,-82.1511,29.178,"Ocala, FL"
268,Fredericksburg,VA,-77.4872,38.2992,"Fredericksburg, VA"
269,Gainesville,GA,-83.8301,34.2903,"Gainesville, GA"
270,Bayam처n,PR,-66.1635,18.3793,"Bayam처n, PR"
271,Enterprise,NV,-115.2208,36.0164,"Enterprise, NV"
272,Manchester,NH,-71.4447,42.9848,"Manchester, NH"
273,Champaign,IL,-88.2735,40.1144,"Champaign, IL"
274,Alexandria,VA,-77.0861,38.8185,"Alexandria, VA"
275,Hayward,CA,-122.0772,37.6328,"Hayward, CA"
276,Springfield,IL,-89.6538,39.771,"Springfield, IL"
277,Lakewood,CO,-105.1168,39.6977,"Lakewood, CO"
278,Lafayette,IN,-86.8594,40.399,"Lafayette, IN"
279,Frederick,MD,-77.4141,39.4336,"Frederick, MD"
280,Lake Charles,LA,-93.2122,30.2012,"Lake Charles, LA"
281,Odessa,TX,-102.3406,31.8831,"Odessa, TX"
282,Tuscaloosa,AL,-87.5267,33.2348,"Tuscaloosa, AL"
283,Warner Robins,GA,-83.6529,32.597,"Warner Robins, GA"
284,Palmdale,CA,-118.1057,34.5944,"Palmdale, CA"
285,Hollywood,FL,-80.1679,26.0294,"Hollywood, FL"
286,Midland,TX,-102.1137,32.0249,"Midland, TX"
287,Leesburg,FL,-81.8996,28.7657,"Leesburg, FL"
288,Port Arthur,TX,-93.9264,29.8554,"Port Arthur, TX"
289,Muskegon,MI,-86.2563,43.2281,"Muskegon, MI"
290,Macon,GA,-83.6974,32.8065,"Macon, GA"
291,Kansas City,KS,-94.7443,39.1234,"Kansas City, KS"
292,Sunnyvale,CA,-122.0256,37.3836,"Sunnyvale, CA"
293,Pomona,CA,-117.7626,34.0585,"Pomona, CA"
294,Escondido,CA,-117.0722,33.1347,"Escondido, CA"
295,Pasadena,TX,-95.1499,29.6583,"Pasadena, TX"
296,New Bedford,MA,-70.9428,41.6697,"New Bedford, MA"
297,Fairfield,CA,-122.0324,38.2592,"Fairfield, CA"
298,Naperville,IL,-88.1657,41.7483,"Naperville, IL"
299,Bellevue,WA,-122.1535,47.5951,"Bellevue, WA"
300,Binghamton,NY,-75.9093,42.1014,"Binghamton, NY"
301,Elkhart,IN,-85.9628,41.6916,"Elkhart, IN"
302,Topeka,KS,-95.6955,39.0346,"Topeka, KS"
303,Joliet,IL,-88.1499,41.5189,"Joliet, IL"
304,Beaumont,TX,-94.1451,30.0849,"Beaumont, TX"
305,Paterson,NJ,-74.1624,40.9147,"Paterson, NJ"
306,Merced,CA,-120.4778,37.3057,"Merced, CA"
307,Pueblo,CO,-104.6112,38.2705,"Pueblo, CO"
308,Tyler,TX,-95.3062,32.3184,"Tyler, TX"
309,Torrance,CA,-118.3417,33.8346,"Torrance, CA"
310,Metairie,LA,-90.178,29.9977,"Metairie, LA"
311,Yuma,AZ,-114.5488,32.5992,"Yuma, AZ"
312,Surprise,AZ,-112.4524,33.68,"Surprise, AZ"
313,Columbia,MO,-92.3256,38.9478,"Columbia, MO"
314,Athens,GA,-83.3689,33.9508,"Athens, GA"
315,Roseville,CA,-121.3196,38.7703,"Roseville, CA"
316,Thornton,CO,-104.9438,39.9197,"Thornton, CO"
317,Miramar,FL,-80.3351,25.9773,"Miramar, FL"
318,Pasadena,CA,-118.139,34.1597,"Pasadena, CA"
319,Mesquite,TX,-96.5889,32.7623,"Mesquite, TX"
320,Santa Maria,CA,-120.4432,34.9334,"Santa Maria, CA"
321,Olathe,KS,-94.8198,38.8832,"Olathe, KS"
322,Houma,LA,-90.7058,29.5799,"Houma, LA"
323,Carolina,PR,-65.9792,18.4054,"Carolina, PR"
324,Carrollton,TX,-96.8999,32.989,"Carrollton, TX"
325,Grand Junction,CO,-108.5673,39.0876,"Grand Junction, CO"
326,Charleston,WV,-81.6323,38.3484,"Charleston, WV"
327,Orange,CA,-117.8218,33.8038,"Orange, CA"
328,Fullerton,CA,-117.9279,33.8841,"Fullerton, CA"
329,Greeley,CO,-104.7706,40.4151,"Greeley, CO"
330,Las Cruces,NM,-106.7892,32.3265,"Las Cruces, NM"
331,Panama City,FL,-85.6004,30.1995,"Panama City, FL"
332,Harlingen,TX,-97.6976,26.1917,"Harlingen, TX"
333,West Valley City,UT,-112.0115,40.6889,"West Valley City, UT"
334,Hampton,VA,-76.363,37.0551,"Hampton, VA"
335,Warren,MI,-83.027,42.4934,"Warren, MI"
336,Mauldin,SC,-82.3005,34.7849,"Mauldin, SC"
337,Bloomington,IL,-88.9703,40.4757,"Bloomington, IL"
338,Coral Springs,FL,-80.2591,26.2702,"Coral Springs, FL"
339,Round Rock,TX,-97.666,30.5254,"Round Rock, TX"
340,Yakima,WA,-120.5496,46.5923,"Yakima, WA"
341,Sterling Heights,MI,-83.0305,42.5809,"Sterling Heights, MI"
342,Kent,WA,-122.2129,47.3887,"Kent, WA"
343,Burlington,NC,-79.4686,36.0758,"Burlington, NC"
344,Bellingham,WA,-122.4687,48.7543,"Bellingham, WA"
345,Santa Clara,CA,-121.968,37.3645,"Santa Clara, CA"
346,Racine,WI,-87.8135,42.7274,"Racine, WI"
347,Greenville,NC,-77.3768,35.5956,"Greenville, NC"
348,Stamford,CT,-73.5583,41.1035,"Stamford, CT"
349,Elizabeth,NJ,-74.1912,40.6657,"Elizabeth, NJ"
350,Johnson City,TN,-82.3803,36.3406,"Johnson City, TN"
351,Lynchburg,VA,-79.1909,37.4003,"Lynchburg, VA"
352,Simi Valley,CA,-118.749,34.2663,"Simi Valley, CA"
353,Fort Smith,AR,-94.3695,35.3493,"Fort Smith, AR"
354,Kenosha,WI,-87.8765,42.5864,"Kenosha, WI"
355,South Lyon,MI,-83.6526,42.4614,"South Lyon, MI"
356,Boulder,CO,-105.2523,40.0249,"Boulder, CO"
357,Pearland,TX,-95.3215,29.5585,"Pearland, TX"
358,Berkeley,CA,-122.276,37.8723,"Berkeley, CA"
359,Richardson,TX,-96.7093,32.9717,"Richardson, TX"
360,Redding,CA,-122.365,40.5698,"Redding, CA"
361,Arvada,CO,-105.1511,39.8321,"Arvada, CO"
362,St. George,UT,-113.577,37.077,"St. George, UT"
363,Billings,MT,-108.5524,45.7891,"Billings, MT"
364,Yuba City,CA,-121.6381,39.1357,"Yuba City, CA"
365,Rochester,MN,-92.4778,44.0151,"Rochester, MN"
366,East Los Angeles,CA,-118.1691,34.0326,"East Los Angeles, CA"
367,Leominster,MA,-71.7717,42.5209,"Leominster, MA"
368,Kingsport,TN,-82.5453,36.5224,"Kingsport, TN"
369,Duluth,MN,-92.1392,46.7756,"Duluth, MN"
370,Lehigh Acres,FL,-81.6388,26.612,"Lehigh Acres, FL"
371,Rock Hill,SC,-81.0244,34.9416,"Rock Hill, SC"
372,Gilroy,CA,-121.5855,37.0047,"Gilroy, CA"
373,Cambridge,MA,-71.1185,42.3759,"Cambridge, MA"
374,Sugar Land,TX,-95.6357,29.5935,"Sugar Land, TX"
375,Texas City,TX,-94.9658,29.4128,"Texas City, TX"
376,Iowa City,IA,-91.5303,41.6559,"Iowa City, IA"
377,Saginaw,MI,-83.9501,43.4199,"Saginaw, MI"
378,Chico,CA,-121.8152,39.7575,"Chico, CA"
379,Dover,DE,-75.5203,39.161,"Dover, DE"
380,Norman,OK,-97.3471,35.2335,"Norman, OK"
381,Clearwater,FL,-82.7622,27.9789,"Clearwater, FL"
382,Coeur d'Alene,ID,-116.7935,47.7041,"Coeur d'Alene, ID"
383,Ponce,PR,-66.6198,18.012,"Ponce, PR"
384,Seaside,CA,-121.8191,36.6224,"Seaside, CA"
385,Independence,MO,-94.3501,39.0871,"Independence, MO"
386,West Jordan,UT,-112.0008,40.6024,"West Jordan, UT"
387,Abilene,TX,-99.7384,32.4543,"Abilene, TX"
388,Bloomington,IN,-86.5257,39.1637,"Bloomington, IN"
389,El Monte,CA,-118.0291,34.0739,"El Monte, CA"
390,Carlsbad,CA,-117.2837,33.1247,"Carlsbad, CA"
391,North Charleston,SC,-80.0722,32.9066,"North Charleston, SC"
392,St. Cloud,MN,-94.1718,45.5339,"St. Cloud, MN"
393,Temecula,CA,-117.1315,33.4928,"Temecula, CA"
394,Clovis,CA,-119.6831,36.8278,"Clovis, CA"
395,Meridian,ID,-116.3968,43.6112,"Meridian, ID"
396,Brandon,FL,-82.3,27.9367,"Brandon, FL"
397,Westminster,CO,-105.0624,39.8837,"Westminster, CO"
398,Costa Mesa,CA,-117.9135,33.6667,"Costa Mesa, CA"
399,Monroe,LA,-92.0774,32.5183,"Monroe, LA"
400,Utica,NY,-75.226,43.0961,"Utica, NY"
401,Pompano Beach,FL,-80.1312,26.2428,"Pompano Beach, FL"
402,West Palm Beach,FL,-80.1316,26.7468,"West Palm Beach, FL"
403,Waterloo,IA,-92.3522,42.492,"Waterloo, IA"
404,Everett,WA,-122.1669,47.9525,"Everett, WA"
405,El Centro,CA,-115.5586,32.7867,"El Centro, CA"
406,Santa Fe,NM,-105.9819,35.6619,"Santa Fe, NM"
407,Downey,CA,-118.1312,33.9379,"Downey, CA"
408,Lowell,MA,-71.3217,42.6389,"Lowell, MA"
409,Centennial,CO,-104.8674,39.5926,"Centennial, CO"
410,Elgin,IL,-88.3229,42.0385,"Elgin, IL"
411,Richmond,CA,-122.339,37.9477,"Richmond, CA"
412,Broken Arrow,OK,-95.7809,36.0365,"Broken Arrow, OK"
413,Miami Gardens,FL,-80.2426,25.9433,"Miami Gardens, FL"
414,The Woodlands,TX,-95.5134,30.1738,"The Woodlands, TX"
415,Bend,OR,-121.3087,44.0562,"Bend, OR"
416,Burlington,VT,-73.2314,44.4877,"Burlington, VT"
417,Jurupa Valley,CA,-117.4705,34.001,"Jurupa Valley, CA"
418,Sandy Springs,GA,-84.3703,33.9366,"Sandy Springs, GA"
419,Gresham,OR,-122.4413,45.5023,"Gresham, OR"
420,Lewisville,TX,-96.9823,33.0452,"Lewisville, TX"
421,Hillsboro,OR,-122.9361,45.5272,"Hillsboro, OR"
422,San Buenaventura,CA,-119.2314,34.2741,"San Buenaventura, CA"
423,Jacksonville,NC,-77.3941,34.7288,"Jacksonville, NC"
424,Pottstown,PA,-75.6444,40.2507,"Pottstown, PA"
425,Inglewood,CA,-118.3444,33.9566,"Inglewood, CA"
426,Spring Hill,FL,-82.53,28.4797,"Spring Hill, FL"
427,League City,TX,-95.1087,29.4873,"League City, TX"
428,Eau Claire,WI,-91.4949,44.8199,"Eau Claire, WI"
429,Turlock,CA,-120.8588,37.5053,"Turlock, CA"
430,Temple,TX,-97.3894,31.1076,"Temple, TX"
431,Sioux City,IA,-96.3901,42.4959,"Sioux City, IA"
432,Salisbury,MD,-75.5867,38.3756,"Salisbury, MD"
433,Davie,FL,-80.287,26.0789,"Davie, FL"
434,Daly City,CA,-122.4685,37.6862,"Daly City, CA"
435,Allen,TX,-96.6735,33.1088,"Allen, TX"
436,Highlands Ranch,CO,-104.9708,39.5419,"Highlands Ranch, CO"
437,West Covina,CA,-117.9112,34.0555,"West Covina, CA"
438,Sparks,NV,-119.7157,39.5729,"Sparks, NV"
439,San Mateo,CA,-122.3122,37.5521,"San Mateo, CA"
440,Norwalk,CA,-118.0829,33.9069,"Norwalk, CA"
441,Columbia,MD,-76.859,39.2004,"Columbia, MD"
442,Rialto,CA,-117.3894,34.1174,"Rialto, CA"
443,Manteca,CA,-121.2264,37.7927,"Manteca, CA"
444,El Cajon,CA,-116.9605,32.8017,"El Cajon, CA"
445,Burbank,CA,-118.3235,34.1879,"Burbank, CA"
446,Longmont,CO,-105.1005,40.1686,"Longmont, CO"
447,Renton,WA,-122.1919,47.4784,"Renton, WA"
448,Vista,CA,-117.2386,33.1896,"Vista, CA"
449,Logan,UT,-111.8419,41.74,"Logan, UT"
450,Prescott Valley,AZ,-112.3176,34.5983,"Prescott Valley, AZ"
451,Vacaville,CA,-121.968,38.359,"Vacaville, CA"
452,Edinburg,TX,-98.1596,26.3197,"Edinburg, TX"
453,Carmel,IN,-86.146,39.965,"Carmel, IN"
454,Spokane Valley,WA,-117.2346,47.6626,"Spokane Valley, WA"
455,San Angelo,TX,-100.4506,31.4424,"San Angelo, TX"
456,La Crosse,WI,-91.2268,43.824,"La Crosse, WI"
457,Arden-Arcade,CA,-121.381,38.6034,"Arden-Arcade, CA"
458,Idaho Falls,ID,-112.0362,43.4872,"Idaho Falls, ID"
459,Holland,MI,-86.0985,42.7677,"Holland, MI"
460,Charlottesville,VA,-78.4855,38.0375,"Charlottesville, VA"
461,Longview,TX,-94.7621,32.5193,"Longview, TX"
462,Tracy,CA,-121.4522,37.7269,"Tracy, CA"
463,Boca Raton,FL,-80.108,26.3752,"Boca Raton, FL"
464,Lafayette,CO,-105.0997,39.9949,"Lafayette, CO"
465,Wichita Falls,TX,-98.5291,33.9072,"Wichita Falls, TX"
466,Rio Rancho,NM,-106.6981,35.2872,"Rio Rancho, NM"
467,South Fulton,GA,-84.5802,33.6269,"South Fulton, GA"
468,Beaverton,OR,-122.8168,45.4779,"Beaverton, OR"
469,Lawrence,KS,-95.2641,38.9597,"Lawrence, KS"
470,Bismarck,ND,-100.7694,46.8144,"Bismarck, ND"
471,Orem,UT,-111.6992,40.2983,"Orem, UT"
472,Middletown,OH,-84.366,39.5032,"Middletown, OH"
473,San Marcos,CA,-117.1744,33.135,"San Marcos, CA"
474,Sandy,UT,-111.8505,40.571,"Sandy, UT"
475,Federal Way,WA,-122.3358,47.3091,"Federal Way, WA"
476,Mandeville,LA,-90.0904,30.3751,"Mandeville, LA"
477,Hesperia,CA,-117.3147,34.3975,"Hesperia, CA"
478,Brockton,MA,-71.0242,42.0821,"Brockton, MA"
479,Compton,CA,-118.2275,33.893,"Compton, CA"
480,Fishers,IN,-85.9661,39.9589,"Fishers, IN"
481,Sunrise,FL,-80.2997,26.1547,"Sunrise, FL"
482,Bowling Green,KY,-86.4373,36.9719,"Bowling Green, KY"
483,Roswell,GA,-84.3513,34.0391,"Roswell, GA"
484,Menifee,CA,-117.1849,33.6909,"Menifee, CA"
485,Plantation,FL,-80.2617,26.126,"Plantation, FL"
486,Dover,NH,-70.8845,43.1887,"Dover, NH"
487,Quincy,MA,-71.0183,42.2516,"Quincy, MA"
488,Portsmouth,VA,-76.354,36.8468,"Portsmouth, VA"
489,Chino,CA,-117.6654,33.9836,"Chino, CA"
490,Lynn,MA,-70.9663,42.4779,"Lynn, MA"
491,Edmond,OK,-97.4159,35.6689,"Edmond, OK"
492,Hanford,CA,-119.6549,36.3274,"Hanford, CA"
493,Dearborn,MI,-83.2129,42.3127,"Dearborn, MI"
494,Livonia,MI,-83.3733,42.3972,"Livonia, MI"
495,South Gate,CA,-118.1926,33.9448,"South Gate, CA"
496,Vineland,NJ,-74.9981,39.4653,"Vineland, NJ"
497,San Tan Valley,AZ,-111.5472,33.1879,"San Tan Valley, AZ"
498,Florence,SC,-79.7877,34.1781,"Florence, SC"
499,Portsmouth,NH,-70.7826,43.058,"Portsmouth, NH"
500,Slidell,LA,-89.7826,30.2881,"Slidell, LA"
501,Kirkland,WA,-122.2054,47.6974,"Kirkland, WA"
502,Missoula,MT,-114.0214,46.875,"Missoula, MT"
503,Auburn,AL,-85.4899,32.6087,"Auburn, AL"
504,Rapid City,SD,-103.2204,44.0716,"Rapid City, SD"
505,Lee's Summit,MO,-94.3816,38.9172,"Lee's Summit, MO"
506,Terre Haute,IN,-87.3763,39.4654,"Terre Haute, IN"
507,Suffolk,VA,-76.6398,36.6953,"Suffolk, VA"
508,Blacksburg,VA,-80.4279,37.23,"Blacksburg, VA"
509,Mount Pleasant,SC,-79.8204,32.8538,"Mount Pleasant, SC"
510,Carson,CA,-118.2559,33.8374,"Carson, CA"
511,Riverview,FL,-82.3023,27.8227,"Riverview, FL"
512,Conroe,TX,-95.4825,30.3239,"Conroe, TX"
513,Livermore,CA,-121.7608,37.6862,"Livermore, CA"
514,Germantown,MD,-77.2643,39.1755,"Germantown, MD"
515,Lawton,OK,-98.4203,34.6176,"Lawton, OK"
516,Westminster,CA,-117.9938,33.7523,"Westminster, CA"
517,Santa Monica,CA,-118.4813,34.0232,"Santa Monica, CA"
518,New Braunfels,TX,-98.1148,29.6994,"New Braunfels, TX"
519,Fall River,MA,-71.1014,41.7137,"Fall River, MA"
520,Albany,GA,-84.1762,31.5776,"Albany, GA"
521,Miami Beach,FL,-80.1396,25.8171,"Miami Beach, FL"
522,Norwalk,CT,-73.4215,41.1144,"Norwalk, CT"
523,San Leandro,CA,-122.1601,37.7071,"San Leandro, CA"
524,Toms River,NJ,-74.1857,39.9931,"Toms River, NJ"
525,O'Fallon,MO,-90.7175,38.785,"O'Fallon, MO"
526,Alafaya,FL,-81.1865,28.5278,"Alafaya, FL"
527,Newton,MA,-71.2085,42.3316,"Newton, MA"
528,Muncie,IN,-85.395,40.1989,"Muncie, IN"
529,Citrus Heights,CA,-121.288,38.6948,"Citrus Heights, CA"
530,State College,PA,-77.8568,40.7909,"State College, PA"
531,Decatur,IL,-88.9337,39.8556,"Decatur, IL"
532,Jackson,MI,-84.4037,42.2431,"Jackson, MI"
533,Fort Myers,FL,-81.8303,26.6195,"Fort Myers, FL"
534,Goodyear,AZ,-112.3622,33.2613,"Goodyear, AZ"
535,Dalton,GA,-84.9712,34.769,"Dalton, GA"
536,Bryan,TX,-96.3668,30.6657,"Bryan, TX"
537,Waukegan,IL,-87.8716,42.3697,"Waukegan, IL"
538,Hawthorne,CA,-118.3476,33.9146,"Hawthorne, CA"
539,Anderson,IN,-85.6893,40.0891,"Anderson, IN"
540,Redwood City,CA,-122.2252,37.5026,"Redwood City, CA"
541,Hoover,AL,-86.8064,33.3754,"Hoover, AL"
542,Town 'n' Country,FL,-82.576,28.0108,"Town 'n' Country, FL"
543,Lake Forest,CA,-117.6712,33.6606,"Lake Forest, CA"
544,Napa,CA,-122.3011,38.2976,"Napa, CA"
545,Whittier,CA,-118.0188,33.9678,"Whittier, CA"
546,Clifton,NJ,-74.1575,40.8631,"Clifton, NJ"
547,Largo,FL,-82.7711,27.9088,"Largo, FL"
548,Bloomington,MN,-93.3151,44.8306,"Bloomington, MN"
549,Johns Creek,GA,-84.2027,34.0333,"Johns Creek, GA"
550,Newport Beach,CA,-117.8669,33.6151,"Newport Beach, CA"
551,Mission,TX,-98.3251,26.2041,"Mission, TX"
552,Milpitas,CA,-121.8921,37.4339,"Milpitas, CA"
553,Troy,MI,-83.1457,42.5818,"Troy, MI"
554,Madera,CA,-120.0782,36.9631,"Madera, CA"
555,Joplin,MO,-94.5018,37.0758,"Joplin, MO"
556,Chino Hills,CA,-117.7253,33.9508,"Chino Hills, CA"
557,Alhambra,CA,-118.1355,34.084,"Alhambra, CA"
558,Franklin,TN,-86.8525,35.9216,"Franklin, TN"
559,Melbourne,FL,-80.6627,28.1085,"Melbourne, FL"
560,Port Huron,MI,-82.4387,42.9822,"Port Huron, MI"
561,Springfield,OH,-83.7957,39.9297,"Springfield, OH"
562,Mountain View,CA,-122.0796,37.4,"Mountain View, CA"
563,Zephyrhills,FL,-82.1796,28.2408,"Zephyrhills, FL"
564,St. Augustine,FL,-81.31,29.8977,"St. Augustine, FL"
565,Flagstaff,AZ,-111.6195,35.1872,"Flagstaff, AZ"
566,Buena Park,CA,-118.0046,33.8572,"Buena Park, CA"
567,Pleasanton,CA,-121.8805,37.6663,"Pleasanton, CA"
568,Westland,MI,-83.3805,42.3192,"Westland, MI"
569,Auburn,WA,-122.2108,47.3039,"Auburn, WA"
570,Cranston,RI,-71.4857,41.7658,"Cranston, RI"
571,Somerville,MA,-71.1013,42.3908,"Somerville, MA"
572,Folsom,CA,-121.1422,38.6668,"Folsom, CA"
573,Springdale,AR,-94.1574,36.1899,"Springdale, AR"
574,Deerfield Beach,FL,-80.1277,26.305,"Deerfield Beach, FL"
575,Warwick,RI,-71.4334,41.7062,"Warwick, RI"
576,Cicero,IL,-87.7593,41.8445,"Cicero, IL"
577,Farmington Hills,MI,-83.3771,42.486,"Farmington Hills, MI"
578,Newark,OH,-82.4251,40.0705,"Newark, OH"
579,Williamsburg,VA,-76.7076,37.2692,"Williamsburg, VA"
580,Brooklyn Park,MN,-93.3505,45.1112,"Brooklyn Park, MN"
581,Hattiesburg,MS,-89.317,31.3074,"Hattiesburg, MS"
582,Alexandria,LA,-92.4702,31.2923,"Alexandria, LA"
583,Lawrence,MA,-71.1626,42.7003,"Lawrence, MA"
584,Florence,AL,-87.6654,34.8303,"Florence, AL"
585,Valdosta,GA,-83.2788,30.8502,"Valdosta, GA"
586,Plymouth,MN,-93.4618,45.0225,"Plymouth, MN"
587,Silver Spring,MD,-77.0207,39.0028,"Silver Spring, MD"
588,Buckeye,AZ,-112.6429,33.4314,"Buckeye, AZ"
589,Georgetown,TX,-97.6953,30.6668,"Georgetown, TX"
590,Cheyenne,WY,-104.79,41.1351,"Cheyenne, WY"
591,Cedar Park,TX,-97.8196,30.5106,"Cedar Park, TX"
592,Kokomo,IN,-86.1277,40.464,"Kokomo, IN"
593,Tustin,CA,-117.8106,33.7309,"Tustin, CA"
594,Lakewood,CA,-118.1221,33.8471,"Lakewood, CA"
595,Perris,CA,-117.2233,33.7899,"Perris, CA"
596,St. Joseph,MO,-94.821,39.7599,"St. Joseph, MO"
597,Flower Mound,TX,-97.1146,33.0344,"Flower Mound, TX"
598,Pharr,TX,-98.1904,26.1685,"Pharr, TX"
599,Atascocita,TX,-95.1953,29.9777,"Atascocita, TX"
600,Alton,IL,-90.1523,38.9034,"Alton, IL"
601,Loveland,CO,-105.0623,40.4166,"Loveland, CO"
602,Boynton Beach,FL,-80.0811,26.5281,"Boynton Beach, FL"
603,New Rochelle,NY,-73.7836,40.9305,"New Rochelle, NY"
604,Anderson,SC,-82.6479,34.5211,"Anderson, SC"
605,Lebanon,PA,-76.4227,40.3412,"Lebanon, PA"
606,Parma,OH,-81.7286,41.3843,"Parma, OH"
607,Layton,UT,-111.9621,41.0769,"Layton, UT"
608,Elizabethtown,KY,-85.877,37.703,"Elizabethtown, KY"
609,Texarkana,TX,-94.0815,33.4487,"Texarkana, TX"
610,Alameda,CA,-122.2672,37.767,"Alameda, CA"
611,The Villages,FL,-81.9888,28.9021,"The Villages, FL"
612,Kankakee,IL,-87.8643,41.1019,"Kankakee, IL"
613,Watsonville,CA,-121.7706,36.9206,"Watsonville, CA"
614,Porterville,CA,-119.0338,36.0644,"Porterville, CA"
615,Baytown,TX,-94.9669,29.7586,"Baytown, TX"
616,Upland,CA,-117.6603,34.1178,"Upland, CA"
617,Davis,CA,-121.7365,38.5552,"Davis, CA"
618,Camarillo,CA,-119.0322,34.223,"Camarillo, CA"
619,South Jordan,UT,-111.9782,40.557,"South Jordan, UT"
620,Battle Creek,MI,-85.2296,42.2986,"Battle Creek, MI"
621,Bellflower,CA,-118.1271,33.888,"Bellflower, CA"
622,Jonesboro,AR,-90.6791,35.8212,"Jonesboro, AR"
623,San Marcos,TX,-97.9381,29.8736,"San Marcos, TX"
624,San Ramon,CA,-121.9365,37.7625,"San Ramon, CA"
625,Lake Jackson,TX,-95.4522,29.0516,"Lake Jackson, TX"
626,Bethlehem,PA,-75.3679,40.6266,"Bethlehem, PA"
627,Wyoming,MI,-85.7066,42.8909,"Wyoming, MI"
628,Pine Hills,FL,-81.4693,28.5818,"Pine Hills, FL"
629,Oshkosh,WI,-88.5619,44.0228,"Oshkosh, WI"
630,Hammond,IN,-87.491,41.6169,"Hammond, IN"
631,Missouri City,TX,-95.5365,29.563,"Missouri City, TX"
632,Centreville,VA,-77.4388,38.8391,"Centreville, VA"
633,Pasco,WA,-119.1304,46.2506,"Pasco, WA"
634,Wheeling,WV,-80.6951,40.0752,"Wheeling, WV"
635,Baldwin Park,CA,-117.9721,34.0829,"Baldwin Park, CA"
636,Rancho Cordova,CA,-121.2523,38.574,"Rancho Cordova, CA"
637,Caguas,PR,-66.0388,18.2319,"Caguas, PR"
638,Conway,AR,-92.4694,35.0754,"Conway, AR"
639,Gary,IN,-87.3472,41.5906,"Gary, IN"
640,Altoona,PA,-78.4007,40.5082,"Altoona, PA"
641,Lodi,CA,-121.2932,38.1218,"Lodi, CA"
642,Arlington Heights,IL,-87.9825,42.0955,"Arlington Heights, IL"
643,Kendall,FL,-80.3556,25.6697,"Kendall, FL"
644,Waldorf,MD,-76.9195,38.6085,"Waldorf, MD"
645,Bolingbrook,IL,-88.1019,41.6903,"Bolingbrook, IL"
646,Rochester Hills,MI,-83.1563,42.6645,"Rochester Hills, MI"
647,Winchester,VA,-78.1746,39.1735,"Winchester, VA"
648,Framingham,MA,-71.4368,42.3085,"Framingham, MA"
649,Hilton Head Island,SC,-80.7499,32.1896,"Hilton Head Island, SC"
650,Union City,CA,-122.0187,37.603,"Union City, CA"
651,Owensboro,KY,-87.1173,37.7574,"Owensboro, KY"
652,Jackson,TN,-88.8353,35.6535,"Jackson, TN"
653,Cheektowaga,NY,-78.7496,42.9082,"Cheektowaga, NY"
654,Cleveland,TN,-84.8707,35.1817,"Cleveland, TN"
655,Wausau,WI,-89.6459,44.962,"Wausau, WI"
656,Camden,NJ,-75.1073,39.9362,"Camden, NJ"
657,Dale City,VA,-77.3459,38.6473,"Dale City, VA"
658,Anniston,AL,-85.8136,33.6712,"Anniston, AL"
659,Evanston,IL,-87.6942,42.0463,"Evanston, IL"
660,Apple Valley,CA,-117.2104,34.5328,"Apple Valley, CA"
661,Mansfield,OH,-82.5275,40.7656,"Mansfield, OH"
662,Schaumburg,IL,-88.0838,42.0307,"Schaumburg, IL"
663,Pocatello,ID,-112.4646,42.8724,"Pocatello, ID"
664,Woodbury,MN,-92.923,44.9056,"Woodbury, MN"
665,Southfield,MI,-83.2605,42.4765,"Southfield, MI"
666,Maple Grove,MN,-93.4626,45.1089,"Maple Grove, MN"
667,Pittsburg,CA,-121.8964,38.0182,"Pittsburg, CA"
668,New Britain,CT,-72.7862,41.6758,"New Britain, CT"
669,Morgantown,WV,-79.9468,39.638,"Morgantown, WV"
670,Mansfield,TX,-97.1211,32.569,"Mansfield, TX"
671,Hammond,LA,-90.4563,30.5061,"Hammond, LA"
672,Dothan,AL,-85.4069,31.2335,"Dothan, AL"
673,Harrisonburg,VA,-78.8735,38.4361,"Harrisonburg, VA"
674,Wenatchee,WA,-120.3283,47.4356,"Wenatchee, WA"
675,Waukesha,WI,-88.2464,43.0087,"Waukesha, WI"
676,Ellicott City,MD,-76.8344,39.2773,"Ellicott City, MD"
677,Pawtucket,RI,-71.3743,41.8744,"Pawtucket, RI"
678,Redmond,WA,-122.1169,47.6762,"Redmond, WA"
679,Lauderhill,FL,-80.2242,26.1605,"Lauderhill, FL"
680,Sumter,SC,-80.393,33.9392,"Sumter, SC"
681,Redlands,CA,-117.1712,34.0511,"Redlands, CA"
682,Daphne,AL,-87.8866,30.6286,"Daphne, AL"
683,Mount Vernon,WA,-122.3115,48.4202,"Mount Vernon, WA"
684,Weston,FL,-80.4054,26.1006,"Weston, FL"
685,St. Charles,MO,-90.5157,38.7954,"St. Charles, MO"
686,Janesville,WI,-89.0136,42.6855,"Janesville, WI"
687,Sherman,TX,-96.6218,33.6274,"Sherman, TX"
688,North Richland Hills,TX,-97.218,32.8605,"North Richland Hills, TX"
689,Broomfield,CO,-105.0527,39.9541,"Broomfield, CO"
690,El Paso de Robles,CA,-120.656,35.6394,"El Paso de Robles, CA"
691,Bristol,TN,-82.2154,36.5572,"Bristol, TN"
692,Wilmington,DE,-75.5413,39.7415,"Wilmington, DE"
693,Walnut Creek,CA,-122.0398,37.9024,"Walnut Creek, CA"
694,Lynwood,CA,-118.2017,33.924,"Lynwood, CA"
695,Glen Burnie,MD,-76.6072,39.1559,"Glen Burnie, MD"
696,Lehi,UT,-111.8726,40.4136,"Lehi, UT"
697,Passaic,NJ,-74.1282,40.8574,"Passaic, NJ"
698,Guaynabo,PR,-66.1134,18.3839,"Guaynabo, PR"
699,Casas Adobes,AZ,-111.0114,32.3423,"Casas Adobes, AZ"
700,Homestead,FL,-80.4472,25.4665,"Homestead, FL"
701,West Bend,WI,-88.1824,43.4184,"West Bend, WI"
702,Delray Beach,FL,-80.0905,26.455,"Delray Beach, FL"
703,Sheboygan,WI,-87.7316,43.7403,"Sheboygan, WI"
704,Lake Elsinore,CA,-117.3344,33.6847,"Lake Elsinore, CA"
705,Daytona Beach,FL,-81.0982,29.1994,"Daytona Beach, FL"
706,Los Lunas,NM,-106.7803,34.8115,"Los Lunas, NM"
707,Lima,OH,-84.1121,40.741,"Lima, OH"
708,Decatur,AL,-86.9906,34.573,"Decatur, AL"
709,Rocklin,CA,-121.2488,38.8075,"Rocklin, CA"
710,Rogers,AR,-94.1526,36.3172,"Rogers, AR"
711,Castle Rock,CO,-104.8535,39.3763,"Castle Rock, CO"
712,Hanover,PA,-76.9835,39.8117,"Hanover, PA"
713,Bossier City,LA,-93.6666,32.5227,"Bossier City, LA"
714,Dubuque,IA,-90.7067,42.5008,"Dubuque, IA"
715,Rockville,MD,-77.1552,39.0834,"Rockville, MD"
716,Victoria,TX,-96.985,28.8285,"Victoria, TX"
717,Saratoga Springs,NY,-73.7775,43.0674,"Saratoga Springs, NY"
718,Gaithersburg,MD,-77.2132,39.1346,"Gaithersburg, MD"
719,Union City,NJ,-74.0323,40.7674,"Union City, NJ"
720,Ames,IA,-93.6215,42.0259,"Ames, IA"
721,West Des Moines,IA,-93.7805,41.5522,"West Des Moines, IA"
722,South San Francisco,CA,-122.4197,37.6536,"South San Francisco, CA"
723,Yorba Linda,CA,-117.7714,33.889,"Yorba Linda, CA"
724,Casper,WY,-106.3207,42.842,"Casper, WY"
725,Palatine,IL,-88.043,42.1181,"Palatine, IL"
726,Corvallis,OR,-123.278,44.5697,"Corvallis, OR"
727,Ankeny,IA,-93.6033,41.7285,"Ankeny, IA"
728,Mount Vernon,NY,-73.8291,40.9136,"Mount Vernon, NY"
729,Rowlett,TX,-96.5488,32.9157,"Rowlett, TX"
730,Lakeville,MN,-93.252,44.6774,"Lakeville, MN"
731,Alpharetta,GA,-84.2739,34.0704,"Alpharetta, GA"
732,Poinciana,FL,-81.482,28.1217,"Poinciana, FL"
733,Longview,WA,-122.9629,46.1461,"Longview, WA"
734,DeKalb,IL,-88.7482,41.9313,"DeKalb, IL"
735,Petaluma,CA,-122.6267,38.2423,"Petaluma, CA"
736,Redondo Beach,CA,-118.3766,33.8574,"Redondo Beach, CA"
737,Tamarac,FL,-80.2542,26.2056,"Tamarac, FL"
738,Laguna Niguel,CA,-117.705,33.5275,"Laguna Niguel, CA"
739,Eagan,MN,-93.1638,44.8169,"Eagan, MN"
740,Kenner,LA,-90.2549,30.0109,"Kenner, LA"
741,Bay City,MI,-83.8886,43.5903,"Bay City, MI"
742,North Little Rock,AR,-92.2371,34.7808,"North Little Rock, AR"
743,Sammamish,WA,-122.0416,47.6017,"Sammamish, WA"
744,Shawnee,KS,-94.8076,39.0158,"Shawnee, KS"
745,Jupiter,FL,-80.1128,26.9199,"Jupiter, FL"
746,Doral,FL,-80.3565,25.8151,"Doral, FL"
747,Carbondale,IL,-89.2238,37.7221,"Carbondale, IL"
748,Blaine,MN,-93.2077,45.1696,"Blaine, MN"
749,Weirton,WV,-80.5671,40.406,"Weirton, WV"
750,Tulare,CA,-119.34,36.1996,"Tulare, CA"
751,Wellington,FL,-80.2699,26.6461,"Wellington, FL"
752,Pflugerville,TX,-97.6022,30.452,"Pflugerville, TX"
753,Palo Alto,CA,-122.1468,37.3913,"Palo Alto, CA"
754,Schenectady,NY,-73.9276,42.8025,"Schenectady, NY"
755,Great Falls,MT,-111.2995,47.5022,"Great Falls, MT"
756,Michigan City,IN,-86.8705,41.7099,"Michigan City, IN"
757,Bayonne,NJ,-74.1141,40.6661,"Bayonne, NJ"
758,Eden Prairie,MN,-93.4595,44.8488,"Eden Prairie, MN"
759,Port Orange,FL,-81.0137,29.1084,"Port Orange, FL"
760,Dublin,CA,-121.8963,37.7161,"Dublin, CA"
761,Carmichael,CA,-121.323,38.6337,"Carmichael, CA"
762,Grand Forks,ND,-97.0886,47.9218,"Grand Forks, ND"
763,Noblesville,IN,-86.0042,40.0354,"Noblesville, IN"
764,San Clemente,CA,-117.6103,33.4498,"San Clemente, CA"
765,Brentwood,CA,-121.7191,37.9355,"Brentwood, CA"
766,East Orange,NJ,-74.2117,40.7651,"East Orange, NJ"
767,Florence-Graham,CA,-118.2447,33.9682,"Florence-Graham, CA"
768,Eastvale,CA,-117.5802,33.9617,"Eastvale, CA"
769,Chapel Hill,NC,-79.0391,35.927,"Chapel Hill, NC"
770,Rocky Mount,NC,-77.8048,35.9676,"Rocky Mount, NC"
771,Haverhill,MA,-71.0871,42.7838,"Haverhill, MA"
772,Beloit,WI,-89.0184,42.523,"Beloit, WI"
773,Glens Falls,NY,-73.6459,43.3109,"Glens Falls, NY"
774,Castro Valley,CA,-122.0631,37.7091,"Castro Valley, CA"
775,Fairbanks,AK,-147.6534,64.8353,"Fairbanks, AK"
776,Springfield,OR,-122.981,44.0538,"Springfield, OR"
777,Johnstown,PA,-78.9193,40.3258,"Johnstown, PA"
778,West Hartford,CT,-72.7536,41.7669,"West Hartford, CT"
779,Coon Rapids,MN,-93.3095,45.1755,"Coon Rapids, MN"
780,Elmira,NY,-76.8097,42.0938,"Elmira, NY"
781,Brentwood,NY,-73.2522,40.7839,"Brentwood, NY"
782,Mankato,MN,-93.9773,44.1712,"Mankato, MN"
783,Albany,OR,-123.0966,44.6274,"Albany, OR"
784,North Miami,FL,-80.1686,25.9007,"North Miami, FL"
785,Dundalk,MD,-76.4942,39.2703,"Dundalk, MD"
786,Encinitas,CA,-117.2613,33.049,"Encinitas, CA"
787,Skokie,IL,-87.74,42.0359,"Skokie, IL"
788,Leander,TX,-97.8618,30.5728,"Leander, TX"
789,Mayag체ez,PR,-67.1397,18.2003,"Mayag체ez, PR"
790,Parkersburg,WV,-81.542,39.2624,"Parkersburg, WV"
791,Waltham,MA,-71.2423,42.3889,"Waltham, MA"
792,Bethesda,MD,-77.1188,38.9866,"Bethesda, MD"
793,San Luis Obispo,CA,-120.6691,35.2669,"San Luis Obispo, CA"
794,Sebring,FL,-81.453,27.477,"Sebring, FL"
795,Council Bluffs,IA,-95.8517,41.2369,"Council Bluffs, IA"
796,Hamilton,OH,-84.5653,39.3938,"Hamilton, OH"
797,Moore,OK,-97.4758,35.3293,"Moore, OK"
798,Pico Rivera,CA,-118.0888,33.9902,"Pico Rivera, CA"
799,Palm Harbor,FL,-82.7481,28.0847,"Palm Harbor, FL"
800,Casa Grande,AZ,-111.7624,32.9068,"Casa Grande, AZ"
801,Monessen,PA,-79.8828,40.1519,"Monessen, PA"
802,Montebello,CA,-118.1108,34.0155,"Montebello, CA"
803,Rome,GA,-85.1862,34.2661,"Rome, GA"
804,Millcreek,UT,-111.8291,40.6892,"Millcreek, UT"
805,Sanford,FL,-81.276,28.7893,"Sanford, FL"
806,National City,CA,-117.0983,32.6654,"National City, CA"
807,Burnsville,MN,-93.2795,44.7648,"Burnsville, MN"
808,Coconut Creek,FL,-80.1842,26.2803,"Coconut Creek, FL"
809,Port Charlotte,FL,-82.114,26.9918,"Port Charlotte, FL"
810,Morristown,TN,-83.3006,36.2046,"Morristown, TN"
811,Lakewood,WA,-122.5299,47.1628,"Lakewood, WA"
812,Gadsden,AL,-86.0156,34.009,"Gadsden, AL"
813,Taylor,MI,-83.2688,42.226,"Taylor, MI"
814,Novi,MI,-83.4893,42.4786,"Novi, MI"
815,Marietta,GA,-84.5422,33.9533,"Marietta, GA"
816,Hot Springs,AR,-93.0501,34.4892,"Hot Springs, AR"
817,Woodland,CA,-121.75,38.6712,"Woodland, CA"
818,La Habra,CA,-117.9513,33.9278,"La Habra, CA"
819,The Hammocks,FL,-80.4483,25.67,"The Hammocks, FL"
820,Malden,MA,-71.0576,42.4305,"Malden, MA"
821,Commerce City,CO,-104.8434,39.8642,"Commerce City, CO"
822,Reston,VA,-77.3461,38.9497,"Reston, VA"
823,South Whittier,CA,-118.0311,33.9336,"South Whittier, CA"
824,Bristol,CT,-72.9407,41.6812,"Bristol, CT"
825,Columbus,IN,-85.9183,39.2093,"Columbus, IN"
826,West Allis,WI,-88.0296,43.0068,"West Allis, WI"
827,Fountainebleau,FL,-80.3458,25.7723,"Fountainebleau, FL"
828,Taylorsville,UT,-111.9493,40.657,"Taylorsville, UT"
829,Bangor,ME,-68.7906,44.8322,"Bangor, ME"
830,Monterey Park,CA,-118.1326,34.0497,"Monterey Park, CA"
831,Greenwood,IN,-86.1073,39.6019,"Greenwood, IN"
832,Bartlett,TN,-89.8195,35.2337,"Bartlett, TN"
833,Bradenton,FL,-82.5739,27.49,"Bradenton, FL"
834,Pontiac,MI,-83.2878,42.6493,"Pontiac, MI"
835,Staunton,VA,-79.0611,38.1593,"Staunton, VA"
836,Meriden,CT,-72.7944,41.5367,"Meriden, CT"
837,Gardena,CA,-118.3073,33.8944,"Gardena, CA"
838,Apex,NC,-78.8728,35.7239,"Apex, NC"
839,Royal Oak,MI,-83.1539,42.5084,"Royal Oak, MI"
840,Cupertino,CA,-122.0465,37.3168,"Cupertino, CA"
841,La Mesa,CA,-117.0204,32.7703,"La Mesa, CA"
842,Brookline,MA,-71.1408,42.3243,"Brookline, MA"
843,Benton Harbor,MI,-86.4488,42.1159,"Benton Harbor, MI"
844,St. Clair Shores,MI,-82.8957,42.4921,"St. Clair Shores, MI"
845,Des Plaines,IL,-87.9009,42.0345,"Des Plaines, IL"
846,Lewiston,ME,-70.1681,44.0915,"Lewiston, ME"
847,Margate,FL,-80.2119,26.2466,"Margate, FL"
848,Midland,MI,-84.2319,43.6241,"Midland, MI"
849,Spring,TX,-95.383,30.0613,"Spring, TX"
850,Carson City,NV,-119.7474,39.1512,"Carson City, NV"
851,Bowie,MD,-76.7409,38.9569,"Bowie, MD"
852,Middletown,NY,-74.4236,41.4459,"Middletown, NY"
853,Caldwell,ID,-116.6591,43.6453,"Caldwell, ID"
854,San Rafael,CA,-122.5222,37.9905,"San Rafael, CA"
855,Kendale Lakes,FL,-80.4078,25.7081,"Kendale Lakes, FL"
856,Towson,MD,-76.619,39.3944,"Towson, MD"
857,Richland,WA,-119.2938,46.2824,"Richland, WA"
858,St. Peters,MO,-90.6061,38.7824,"St. Peters, MO"
859,South Hill,WA,-122.2848,47.1203,"South Hill, WA"
860,Hendersonville,TN,-86.5998,36.3063,"Hendersonville, TN"
861,White Plains,NY,-73.7549,41.022,"White Plains, NY"
862,Huntersville,NC,-80.8727,35.4058,"Huntersville, NC"
863,Santee,CA,-116.9851,32.8554,"Santee, CA"
864,Jefferson City,MO,-92.1759,38.5676,"Jefferson City, MO"
865,Beckley,WV,-81.1841,37.7878,"Beckley, WV"
866,Arcadia,CA,-118.0373,34.1342,"Arcadia, CA"
867,Titusville,FL,-80.8193,28.5727,"Titusville, FL"
868,Cartersville,GA,-84.8007,34.1639,"Cartersville, GA"
869,Walla Walla,WA,-118.3366,46.067,"Walla Walla, WA"
870,Orland Park,IL,-87.8619,41.6074,"Orland Park, IL"
871,Weymouth Town,MA,-70.9466,42.1984,"Weymouth Town, MA"
872,Parker,CO,-104.7753,39.5084,"Parker, CO"
873,Palm Beach Gardens,FL,-80.1679,26.8466,"Palm Beach Gardens, FL"
874,Bozeman,MT,-111.0552,45.6832,"Bozeman, MT"
875,East Stroudsburg,PA,-75.1779,41.0023,"East Stroudsburg, PA"
876,Tamiami,FL,-80.4016,25.7556,"Tamiami, FL"
877,Huntington Park,CA,-118.2167,33.98,"Huntington Park, CA"
878,Taunton,MA,-71.0943,41.9036,"Taunton, MA"
879,Midwest City,OK,-97.3709,35.463,"Midwest City, OK"
880,Medford,MA,-71.1087,42.4234,"Medford, MA"
881,Goldsboro,NC,-77.972,35.3778,"Goldsboro, NC"
882,Euless,TX,-97.0799,32.8508,"Euless, TX"
883,Manhattan,KS,-96.6046,39.1886,"Manhattan, KS"
884,Shoreline,WA,-122.3426,47.7564,"Shoreline, WA"
885,Lake Havasu City,AZ,-114.3113,34.5006,"Lake Havasu City, AZ"
886,Smyrna,GA,-84.5168,33.8633,"Smyrna, GA"
887,Cape Girardeau,MO,-89.5597,37.3108,"Cape Girardeau, MO"
888,Grants Pass,OR,-123.3317,42.4333,"Grants Pass, OR"
889,Blue Springs,MO,-94.2721,39.0124,"Blue Springs, MO"
890,Southaven,MS,-89.9787,34.9514,"Southaven, MS"
891,Tinley Park,IL,-87.805,41.567,"Tinley Park, IL"
892,Diamond Bar,CA,-117.8161,33.9991,"Diamond Bar, CA"
893,Pittsfield,MA,-73.2605,42.4517,"Pittsfield, MA"
894,Eagle Pass,TX,-100.484,28.7125,"Eagle Pass, TX"
895,New Brunswick,NJ,-74.445,40.487,"New Brunswick, NJ"
896,Lenexa,KS,-94.8018,38.9609,"Lenexa, KS"
897,Hazleton,PA,-75.9724,40.9504,"Hazleton, PA"
898,Twin Falls,ID,-114.4615,42.5645,"Twin Falls, ID"
899,Brookhaven,GA,-84.3314,33.8744,"Brookhaven, GA"
900,Lakewood,NJ,-74.2117,40.0942,"Lakewood, NJ"
901,Novato,CA,-122.5576,38.092,"Novato, CA"
902,Tigard,OR,-122.7845,45.4237,"Tigard, OR"
903,Aloha,OR,-122.8726,45.492,"Aloha, OR"
904,Highland,CA,-117.1654,34.1113,"Highland, CA"
905,Fountain Valley,CA,-117.9514,33.7105,"Fountain Valley, CA"
906,Dearborn Heights,MI,-83.2769,42.3164,"Dearborn Heights, MI"
907,Grapevine,TX,-97.0744,32.9343,"Grapevine, TX"
908,Fond du Lac,WI,-88.4396,43.7718,"Fond du Lac, WI"
909,Ithaca,NY,-76.5032,42.4442,"Ithaca, NY"
910,Apple Valley,MN,-93.2006,44.7457,"Apple Valley, MN"
911,Chicopee,MA,-72.5719,42.1764,"Chicopee, MA"
912,Hempstead,NY,-73.6193,40.7043,"Hempstead, NY"
913,Wesley Chapel,FL,-82.3238,28.2106,"Wesley Chapel, FL"
914,Oak Lawn,IL,-87.7528,41.7139,"Oak Lawn, IL"
915,Cathedral City,CA,-116.4642,33.8363,"Cathedral City, CA"
916,Hacienda Heights,CA,-117.9728,33.997,"Hacienda Heights, CA"
917,Delano,CA,-119.2637,35.767,"Delano, CA"
918,Bentonville,AR,-94.2306,36.3546,"Bentonville, AR"
919,Stonecrest,GA,-84.1372,33.6842,"Stonecrest, GA"
920,Kettering,OH,-84.1495,39.6957,"Kettering, OH"
921,Colton,CA,-117.3254,34.0538,"Colton, CA"
922,Kingston,NY,-73.9968,41.9295,"Kingston, NY"
923,West Haven,CT,-72.9672,41.2739,"West Haven, CT"
924,St. Cloud,FL,-81.2829,28.2294,"St. Cloud, FL"
925,Normal,IL,-88.9881,40.5218,"Normal, IL"
926,Berwyn,IL,-87.7909,41.8433,"Berwyn, IL"
927,Arroyo Grande,CA,-120.5845,35.1241,"Arroyo Grande, CA"
928,Minnetonka,MN,-93.4598,44.9322,"Minnetonka, MN"
929,Rosemead,CA,-118.0823,34.0689,"Rosemead, CA"
930,Paramount,CA,-118.1652,33.8976,"Paramount, CA"
931,Yucaipa,CA,-117.0429,34.0336,"Yucaipa, CA"
932,Brunswick,GA,-81.474,31.145,"Brunswick, GA"
933,Williamsport,PA,-77.0371,41.2398,"Williamsport, PA"
934,Elyria,OH,-82.1063,41.3761,"Elyria, OH"
935,Leesburg,VA,-77.5544,39.1058,"Leesburg, VA"
936,Mount Prospect,IL,-87.9375,42.0641,"Mount Prospect, IL"
937,Pinellas Park,FL,-82.7078,27.8589,"Pinellas Park, FL"
938,Bellevue,NE,-95.9357,41.1535,"Bellevue, NE"
939,West Sacramento,CA,-121.5504,38.5557,"West Sacramento, CA"
940,Apopka,FL,-81.5304,28.7014,"Apopka, FL"
941,Lewiston,ID,-116.9934,46.3934,"Lewiston, ID"
942,Grand Island,NE,-98.3584,40.9214,"Grand Island, NE"
943,Palm Desert,CA,-116.3695,33.7378,"Palm Desert, CA"
944,Milford city ,CT,-73.0625,41.2256,"Milford city , CT"
945,Watertown,NY,-75.9094,43.9734,"Watertown, NY"
946,Little Elm,TX,-96.929,33.1856,"Little Elm, TX"
947,Chambersburg,PA,-77.6556,39.9315,"Chambersburg, PA"
948,Revere,MA,-71.0036,42.4192,"Revere, MA"
949,Peabody,MA,-70.9724,42.5335,"Peabody, MA"
950,Wylie,TX,-96.5161,33.0362,"Wylie, TX"
951,Beaufort,SC,-80.7235,32.4597,"Beaufort, SC"
952,DeSoto,TX,-96.8633,32.5992,"DeSoto, TX"
953,Helena,MT,-112.0202,46.5965,"Helena, MT"
954,Edina,MN,-93.3602,44.8914,"Edina, MN"
955,Aspen Hill,MD,-77.0823,39.0928,"Aspen Hill, MD"
956,Wheaton,IL,-88.1083,41.8561,"Wheaton, IL"
957,West New York,NJ,-74.0093,40.7856,"West New York, NJ"
958,Hoboken,NJ,-74.0279,40.7453,"Hoboken, NJ"
959,Lacey,WA,-122.7934,47.046,"Lacey, WA"
960,Summerville,SC,-80.1799,33.0015,"Summerville, SC"
961,Oak Park,IL,-87.7899,41.8872,"Oak Park, IL"
962,Lompoc,CA,-120.4714,34.6618,"Lompoc, CA"
963,Kentwood,MI,-85.5925,42.8852,"Kentwood, MI"
964,Sierra Vista,AZ,-110.3153,31.563,"Sierra Vista, AZ"
965,Levittown,PA,-74.853,40.1537,"Levittown, PA"
966,Madison,AL,-86.7626,34.7114,"Madison, AL"
967,Smyrna,TN,-86.5253,35.9722,"Smyrna, TN"
968,Glendora,CA,-117.8468,34.1449,"Glendora, CA"
969,Levittown,NY,-73.5125,40.7241,"Levittown, NY"
970,Burien,WA,-122.3394,47.4762,"Burien, WA"
971,Perth Amboy,NJ,-74.2724,40.5203,"Perth Amboy, NJ"
972,Herriman,UT,-112.0171,40.4899,"Herriman, UT"
973,Farmington,NM,-108.1823,36.7555,"Farmington, NM"
974,New Bern,NC,-77.0723,35.0955,"New Bern, NC"
975,Placentia,CA,-117.8553,33.8807,"Placentia, CA"
976,Hinesville,GA,-81.6135,31.8247,"Hinesville, GA"
977,Beaumont,CA,-116.9766,33.9076,"Beaumont, CA"
978,Collierville,TN,-89.6988,35.0471,"Collierville, TN"
979,West Lafayette,IN,-86.9239,40.4432,"West Lafayette, IN"
980,Florissant,MO,-90.3269,38.7996,"Florissant, MO"
981,Hoffman Estates,IL,-88.1468,42.0639,"Hoffman Estates, IL"
982,Queen Creek,AZ,-111.6343,33.2386,"Queen Creek, AZ"
983,Aliso Viejo,CA,-117.7289,33.5792,"Aliso Viejo, CA"
984,Kannapolis,NC,-80.6403,35.4764,"Kannapolis, NC"
985,Maricopa,AZ,-112.0006,33.0404,"Maricopa, AZ"
986,Methuen Town,MA,-71.1889,42.734,"Methuen Town, MA"
987,Sahuarita,AZ,-110.9654,31.9323,"Sahuarita, AZ"
988,Rowland Heights,CA,-117.8911,33.9716,"Rowland Heights, CA"
989,Traverse City,MI,-85.6035,44.7547,"Traverse City, MI"
990,Wheaton,MD,-77.0572,39.0492,"Wheaton, MD"
991,East Hartford,CT,-72.6152,41.7634,"East Hartford, CT"
992,Irondequoit,NY,-77.5705,43.2096,"Irondequoit, NY"
993,Catalina Foothills,AZ,-110.8835,32.3041,"Catalina Foothills, AZ"
994,Cookeville,TN,-85.5114,36.1484,"Cookeville, TN"
995,Mishawaka,IN,-86.1669,41.6736,"Mishawaka, IN"
996,Plainfield,NJ,-74.4157,40.6154,"Plainfield, NJ"
997,Bullhead City,AZ,-114.546,35.1205,"Bullhead City, AZ"
998,Ashburn,VA,-77.4711,39.03,"Ashburn, VA"
999,North Bethesda,MD,-77.1191,39.0393,"North Bethesda, MD"
1000,Forney,TX,-96.4529,32.744,"Forney, TX"
1001,Severn,MD,-76.6958,39.1355,"Severn, MD"
1002,Azusa,CA,-117.9124,34.1386,"Azusa, CA"
1003,Cerritos,CA,-118.0686,33.8677,"Cerritos, CA"
1004,Bloomsburg,PA,-76.4561,41.0027,"Bloomsburg, PA"
1005,Morehead City,NC,-76.7387,34.7308,"Morehead City, NC"
1006,Coral Gables,FL,-80.2715,25.7037,"Coral Gables, FL"
1007,Country Club,FL,-80.3102,25.9407,"Country Club, FL"
1008,Lakewood,OH,-81.8008,41.4824,"Lakewood, OH"
1009,Oroville,CA,-121.5634,39.4999,"Oroville, CA"
1010,Wilson,NC,-77.9284,35.7312,"Wilson, NC"
1011,Lawrence,IN,-85.9905,39.8674,"Lawrence, IN"
1012,Portage,MI,-85.5906,42.2,"Portage, MI"
1013,Minot,ND,-101.2781,48.2375,"Minot, ND"
1014,Dunwoody,GA,-84.3122,33.9418,"Dunwoody, GA"
1015,Poway,CA,-117.0201,32.9871,"Poway, CA"
1016,San Jacinto,CA,-116.9916,33.797,"San Jacinto, CA"
1017,Troy,NY,-73.6751,42.7354,"Troy, NY"
1018,Newark,CA,-122.0312,37.5204,"Newark, CA"
1019,Florin,CA,-121.4042,38.4832,"Florin, CA"
1020,Cuyahoga Falls,OH,-81.5207,41.1641,"Cuyahoga Falls, OH"
1021,Downers Grove,IL,-88.017,41.7949,"Downers Grove, IL"
1022,Bedford,TX,-97.135,32.8464,"Bedford, TX"
1023,Reedley,CA,-119.4473,36.5987,"Reedley, CA"
1024,Dublin,OH,-83.1454,40.1112,"Dublin, OH"
1025,Marana,AZ,-111.1558,32.4355,"Marana, AZ"
1026,Stillwater,OK,-97.074,36.1316,"Stillwater, OK"
1027,Cypress,CA,-118.0386,33.8171,"Cypress, CA"
1028,Hollister,CA,-121.3981,36.8563,"Hollister, CA"
1029,North Highlands,CA,-121.3721,38.6713,"North Highlands, CA"
1030,Murray,UT,-111.8874,40.6498,"Murray, UT"
1031,Roswell,NM,-104.5294,33.373,"Roswell, NM"
1032,Pascagoula,MS,-88.5507,30.3665,"Pascagoula, MS"
1033,Ceres,CA,-120.9625,37.5953,"Ceres, CA"
1034,St. Louis Park,MN,-93.3649,44.9488,"St. Louis Park, MN"
1035,Rio Grande City,TX,-98.8215,26.3808,"Rio Grande City, TX"
1036,Draper,UT,-111.8605,40.4957,"Draper, UT"
1037,Palm Springs,CA,-116.5382,33.8017,"Palm Springs, CA"
1038,Paducah,KY,-88.6436,37.0711,"Paducah, KY"
1039,Findlay,OH,-83.6379,41.0467,"Findlay, OH"
1040,Kyle,TX,-97.8859,29.9937,"Kyle, TX"
1041,Monroe,MI,-83.385,41.9154,"Monroe, MI"
1042,Tuckahoe,VA,-77.5858,37.5878,"Tuckahoe, VA"
1043,Lincoln,CA,-121.2916,38.8759,"Lincoln, CA"
1044,Bel Air South,MD,-76.3197,39.5051,"Bel Air South, MD"
1045,Ocoee,FL,-81.5338,28.5787,"Ocoee, FL"
1046,Burleson,TX,-97.3343,32.517,"Burleson, TX"
1047,La Mirada,CA,-118.0093,33.9025,"La Mirada, CA"
1048,Farmers Branch,TX,-96.8804,32.9272,"Farmers Branch, TX"
1049,East Lansing,MI,-84.4835,42.748,"East Lansing, MI"
1050,Uniontown,PA,-79.7244,39.8994,"Uniontown, PA"
1051,Jeffersonville,IN,-85.7026,38.3376,"Jeffersonville, IN"
1052,Winder,GA,-83.7218,33.9917,"Winder, GA"
1053,Wauwatosa,WI,-88.0347,43.0615,"Wauwatosa, WI"
1054,Littleton,CO,-105.0188,39.5915,"Littleton, CO"
1055,Cumberland,MD,-78.7585,39.6515,"Cumberland, MD"
1056,Cedar Hill,TX,-96.9591,32.581,"Cedar Hill, TX"
1057,Carrollton,GA,-85.0837,33.5817,"Carrollton, GA"
1058,Enid,OK,-97.8701,36.4061,"Enid, OK"
1059,Rancho Santa Margarita,CA,-117.5989,33.6318,"Rancho Santa Margarita, CA"
1060,East Honolulu,HI,-157.7211,21.2975,"East Honolulu, HI"
1061,Beavercreek,OH,-84.0624,39.731,"Beavercreek, OH"
1062,Niagara Falls,NY,-79.0147,43.0921,"Niagara Falls, NY"
1063,East Providence,RI,-71.3565,41.8065,"East Providence, RI"
1064,Chesterfield,MO,-90.5804,38.6588,"Chesterfield, MO"
1065,Covina,CA,-117.8817,34.0903,"Covina, CA"
1066,Bothell,WA,-122.2044,47.7735,"Bothell, WA"
1067,Antelope,CA,-121.361,38.7153,"Antelope, CA"
1068,Glenview,IL,-87.8216,42.0825,"Glenview, IL"
1069,Mentor,OH,-81.3361,41.6895,"Mentor, OH"
1070,Keller,TX,-97.2255,32.9337,"Keller, TX"
1071,McLean,VA,-77.1943,38.9436,"McLean, VA"
1072,Danville,IL,-87.6114,40.1423,"Danville, IL"
1073,Spring Hill,TN,-86.9116,35.7438,"Spring Hill, TN"
1074,Roseville,MI,-82.9369,42.5074,"Roseville, MI"
1075,Elmhurst,IL,-87.9432,41.8973,"Elmhurst, IL"
1076,New Philadelphia,OH,-81.4402,40.486,"New Philadelphia, OH"
1077,Sandusky,OH,-82.7149,41.4437,"Sandusky, OH"
1078,Euclid,OH,-81.5188,41.5904,"Euclid, OH"
1079,Kingman,AZ,-114.0105,35.217,"Kingman, AZ"
1080,Galveston,TX,-94.891,29.2487,"Galveston, TX"
1081,Everett,MA,-71.0545,42.4064,"Everett, MA"
1082,University,FL,-82.4335,28.0771,"University, FL"
1083,Salina,KS,-97.6143,38.8137,"Salina, KS"
1084,Farmington,MO,-90.4288,37.7821,"Farmington, MO"
1085,Hilo,HI,-155.0864,19.6886,"Hilo, HI"
1086,Weatherford,TX,-97.7723,32.7536,"Weatherford, TX"
1087,Middletown,CT,-72.6549,41.5476,"Middletown, CT"
1088,Roseburg,OR,-123.3518,43.2232,"Roseburg, OR"
1089,Biloxi,MS,-88.9512,30.4422,"Biloxi, MS"
1090,Leavenworth,KS,-94.924,39.3239,"Leavenworth, KS"
1091,Pearl City,HI,-157.9566,21.4031,"Pearl City, HI"
1092,Fort Pierce,FL,-80.3431,27.4256,"Fort Pierce, FL"
1093,Winter Garden,FL,-81.5966,28.5421,"Winter Garden, FL"
1094,Oro Valley,AZ,-110.9768,32.4208,"Oro Valley, AZ"
1095,Morgan Hill,CA,-121.6417,37.1326,"Morgan Hill, CA"
1096,Pinehurst,NC,-79.4684,35.1922,"Pinehurst, NC"
1097,Danville,VA,-79.4087,36.5831,"Danville, VA"
1098,Rockwall,TX,-96.4377,32.9169,"Rockwall, TX"
1099,Potomac,MD,-77.1943,39.0141,"Potomac, MD"
1100,Coachella,CA,-116.143,33.6905,"Coachella, CA"
1101,Wake Forest,NC,-78.5141,35.9629,"Wake Forest, NC"
1102,El Dorado Hills,CA,-121.049,38.675,"El Dorado Hills, CA"
1103,Tupelo,MS,-88.7318,34.2692,"Tupelo, MS"
1104,West Seneca,NY,-78.7509,42.8374,"West Seneca, NY"
1105,Attleboro,MA,-71.295,41.9311,"Attleboro, MA"
1106,Pine Bluff,AR,-92.0178,34.2116,"Pine Bluff, AR"
1107,Oakland Park,FL,-80.1528,26.178,"Oakland Park, FL"
1108,Marion,OH,-83.1237,40.5933,"Marion, OH"
1109,Arlington,MA,-71.164,42.4187,"Arlington, MA"
1110,Altadena,CA,-118.1345,34.1928,"Altadena, CA"
1111,Lufkin,TX,-94.7277,31.3217,"Lufkin, TX"
1112,Manitowoc,WI,-87.6811,44.0991,"Manitowoc, WI"
1113,Selma,CA,-119.6143,36.5715,"Selma, CA"
1114,Trujillo Alto,PR,-66.0103,18.3601,"Trujillo Alto, PR"
1115,Strongsville,OH,-81.8313,41.3128,"Strongsville, OH"
1116,Danville,CA,-121.9698,37.8121,"Danville, CA"
1117,Quincy,IL,-91.3799,39.9335,"Quincy, IL"
1118,Lancaster,OH,-82.6049,39.7249,"Lancaster, OH"
1119,Riverton,UT,-111.9635,40.5177,"Riverton, UT"
1120,The Colony,TX,-96.8977,33.0925,"The Colony, TX"
1121,Lake Ridge,VA,-77.3059,38.6843,"Lake Ridge, VA"
1122,Urbandale,IA,-93.7813,41.639,"Urbandale, IA"
1123,Plainfield,IL,-88.2252,41.6206,"Plainfield, IL"
1124,Lombard,IL,-88.0157,41.8742,"Lombard, IL"
1125,Prescott,AZ,-112.4475,34.585,"Prescott, AZ"
1126,North Lauderdale,FL,-80.2209,26.2113,"North Lauderdale, FL"
1127,Eureka,CA,-124.1568,40.7942,"Eureka, CA"
1128,Hackensack,NJ,-74.0461,40.889,"Hackensack, NJ"
1129,Sayreville,NJ,-74.3237,40.4656,"Sayreville, NJ"
1130,Altamonte Springs,FL,-81.3953,28.6615,"Altamonte Springs, FL"
1131,Del Rio,TX,-100.88,29.3708,"Del Rio, TX"
1132,Cleveland Heights,OH,-81.5636,41.5112,"Cleveland Heights, OH"
1133,Bountiful,UT,-111.8647,40.8722,"Bountiful, UT"
1134,Desert Hot Springs,CA,-116.543,33.9551,"Desert Hot Springs, CA"
1135,Peachtree Corners,GA,-84.2319,33.967,"Peachtree Corners, GA"
1136,Haltom City,TX,-97.2707,32.8176,"Haltom City, TX"
1137,Ormond Beach,FL,-81.1003,29.296,"Ormond Beach, FL"
1138,Annandale,VA,-77.196,38.8324,"Annandale, VA"
1139,Cutler Bay,FL,-80.3356,25.5765,"Cutler Bay, FL"
1140,Adrian,MI,-84.0446,41.8994,"Adrian, MI"
1141,Goose Creek,SC,-80.0054,32.9925,"Goose Creek, SC"
1142,Moorhead,MN,-96.7461,46.8673,"Moorhead, MN"
1143,Westfield,IN,-86.1532,40.0333,"Westfield, IN"
1144,Concord,NH,-71.5595,43.2305,"Concord, NH"
1145,Rohnert Park,CA,-122.6964,38.348,"Rohnert Park, CA"
1146,Brea,CA,-117.8656,33.9254,"Brea, CA"
1147,Klamath Falls,OR,-121.7754,42.2191,"Klamath Falls, OR"
1148,Salem,MA,-70.902,42.5129,"Salem, MA"
1149,Whitney,NV,-115.038,36.1005,"Whitney, NV"
1150,North Miami Beach,FL,-80.166,25.9302,"North Miami Beach, FL"
1151,Freeport,NY,-73.585,40.6515,"Freeport, NY"
1152,Centralia,WA,-122.9696,46.7226,"Centralia, WA"
1153,Gallatin,TN,-86.4696,36.3782,"Gallatin, TN"
1154,West Babylon,NY,-73.3567,40.7112,"West Babylon, NY"
1155,Stevens Point,WI,-89.5508,44.5241,"Stevens Point, WI"
1156,San Bruno,CA,-122.4313,37.6254,"San Bruno, CA"
1157,Brentwood,TN,-86.7758,35.9918,"Brentwood, TN"
1158,Burke,VA,-77.2633,38.7773,"Burke, VA"
1159,Hicksville,NY,-73.5245,40.7637,"Hicksville, NY"
1160,Edmonds,WA,-122.3533,47.8115,"Edmonds, WA"
1161,Apache Junction,AZ,-111.5351,33.3985,"Apache Junction, AZ"
1162,Fairfield,OH,-84.5409,39.3301,"Fairfield, OH"
1163,Oakley,CA,-121.6951,37.9929,"Oakley, CA"
1164,Hutchinson,KS,-97.9081,38.0671,"Hutchinson, KS"
1165,Greenwood,SC,-82.1542,34.1945,"Greenwood, SC"
1166,Richmond,IN,-84.8905,39.8318,"Richmond, IN"
1167,Puyallup,WA,-122.2902,47.1794,"Puyallup, WA"
1168,Linden,NJ,-74.2381,40.6251,"Linden, NJ"
1169,Urbana,IL,-88.1972,40.1106,"Urbana, IL"
1170,Beverly,MA,-70.8627,42.5681,"Beverly, MA"
1171,Clovis,NM,-103.1923,34.4376,"Clovis, NM"
1172,Statesboro,GA,-81.775,32.4376,"Statesboro, GA"
1173,Hobbs,NM,-103.16,32.7282,"Hobbs, NM"
1174,McMinnville,OR,-123.1918,45.211,"McMinnville, OR"
1175,Schertz,TX,-98.2537,29.5649,"Schertz, TX"
1176,Bell Gardens,CA,-118.155,33.9663,"Bell Gardens, CA"
1177,Channelview,TX,-95.1145,29.7914,"Channelview, TX"
1178,Oviedo,FL,-81.1872,28.658,"Oviedo, FL"
1179,Odenton,MD,-76.6939,39.0661,"Odenton, MD"
1180,Grove City,OH,-83.0694,39.8659,"Grove City, OH"
1181,Campbell,CA,-121.9538,37.2802,"Campbell, CA"
1182,Wentzville,MO,-90.8667,38.8152,"Wentzville, MO"
1183,Woonsocket,RI,-71.4993,42.001,"Woonsocket, RI"
1184,La Quinta,CA,-116.2785,33.6536,"La Quinta, CA"
1185,North Fort Myers,FL,-81.8491,26.7243,"North Fort Myers, FL"
1186,Weslaco,TX,-97.9898,26.1648,"Weslaco, TX"
1187,Zanesville,OH,-82.0132,39.9565,"Zanesville, OH"
1188,Newnan,GA,-84.7761,33.3766,"Newnan, GA"
1189,Shakopee,MN,-93.4764,44.7744,"Shakopee, MN"
1190,Brighton,CO,-104.7964,39.9716,"Brighton, CO"
1191,Rancho Palos Verdes,CA,-118.3637,33.7554,"Rancho Palos Verdes, CA"
1192,Catonsville,MD,-76.7424,39.2646,"Catonsville, MD"
1193,Coppell,TX,-96.9905,32.9638,"Coppell, TX"
1194,Moline,IL,-90.4921,41.4821,"Moline, IL"
1195,Delaware,OH,-83.0747,40.2866,"Delaware, OH"
1196,Westfield,MA,-72.7561,42.1382,"Westfield, MA"
1197,Shelton,CT,-73.1383,41.306,"Shelton, CT"
1198,Greenacres,FL,-80.1371,26.6272,"Greenacres, FL"
1199,Westerville,OH,-82.9209,40.1241,"Westerville, OH"
1200,Linton Hall,VA,-77.575,38.7551,"Linton Hall, VA"
1201,Manassas,VA,-77.4839,38.7479,"Manassas, VA"
1202,Kearny,NJ,-74.1202,40.7528,"Kearny, NJ"
1203,South Valley,NM,-106.6819,35.0092,"South Valley, NM"
1204,Los Banos,CA,-120.8406,37.063,"Los Banos, CA"
1205,Richmond,KY,-84.2926,37.7306,"Richmond, KY"
1206,Spanish Fork,UT,-111.6406,40.1101,"Spanish Fork, UT"
1207,Belleville,IL,-89.99,38.5165,"Belleville, IL"
1208,Maplewood,MN,-93.0247,44.9842,"Maplewood, MN"
1209,Wilkes-Barre,PA,-75.8759,41.2468,"Wilkes-Barre, PA"
1210,Pottsville,PA,-76.2092,40.6798,"Pottsville, PA"
1211,Columbia,TN,-87.0486,35.6235,"Columbia, TN"
1212,Bartlett,IL,-88.2069,41.9803,"Bartlett, IL"
1213,Bluefield,WV,-81.2143,37.2608,"Bluefield, WV"
1214,Fitchburg,MA,-71.8156,42.5912,"Fitchburg, MA"
1215,Marion,IN,-85.66,40.5496,"Marion, IN"
1216,Cedar Falls,IA,-92.4534,42.5195,"Cedar Falls, IA"
1217,Buffalo Grove,IL,-87.9616,42.1673,"Buffalo Grove, IL"
1218,Jamestown,NY,-79.2366,42.0975,"Jamestown, NY"
1219,Essex,MD,-76.4457,39.3024,"Essex, MD"
1220,Huntsville,TX,-95.5544,30.705,"Huntsville, TX"
1221,Mableton,GA,-84.5656,33.8132,"Mableton, GA"
1222,Waipahu,HI,-158.0103,21.3858,"Waipahu, HI"
1223,Clarksburg,WV,-80.323,39.2863,"Clarksburg, WV"
1224,Royal Palm Beach,FL,-80.2241,26.7038,"Royal Palm Beach, FL"
1225,Marion,IA,-91.5846,42.045,"Marion, IA"
1226,Covington,KY,-84.5166,39.0334,"Covington, KY"
1227,Friendswood,TX,-95.1979,29.5111,"Friendswood, TX"
1228,Indian Trail,NC,-80.6457,35.0698,"Indian Trail, NC"
1229,Woburn,MA,-71.1543,42.4869,"Woburn, MA"
1230,Holyoke,MA,-72.6411,42.2125,"Holyoke, MA"
1231,Arecibo,PR,-66.7387,18.4491,"Arecibo, PR"
1232,Montclair,CA,-117.698,34.0714,"Montclair, CA"
1233,Clinton,MD,-76.9063,38.7499,"Clinton, MD"
1234,Torrington,CT,-73.1281,41.8349,"Torrington, CT"
1235,Cedar City,UT,-113.0956,37.6834,"Cedar City, UT"
1236,Coram,NY,-73.0059,40.8813,"Coram, NY"
1237,San Gabriel,CA,-118.099,34.0948,"San Gabriel, CA"
1238,Hallandale Beach,FL,-80.1423,25.9854,"Hallandale Beach, FL"
1239,Crystal Lake,IL,-88.3351,42.2333,"Crystal Lake, IL"
1240,Calexico,CA,-115.4944,32.6849,"Calexico, CA"
1241,Lake Oswego,OR,-122.7003,45.413,"Lake Oswego, OR"
1242,Muskogee,OK,-95.3568,35.7431,"Muskogee, OK"
1243,Romeoville,IL,-88.0996,41.6318,"Romeoville, IL"
1244,Plant City,FL,-82.1201,28.014,"Plant City, FL"
1245,Keizer,OR,-123.0241,45.0029,"Keizer, OR"
1246,New Berlin,WI,-88.1291,42.9726,"New Berlin, WI"
1247,Chelsea,MA,-71.0325,42.3959,"Chelsea, MA"
1248,The Acreage,FL,-80.2779,26.7741,"The Acreage, FL"
1249,La Puente,CA,-117.9533,34.0323,"La Puente, CA"
1250,Roy,UT,-112.0485,41.1715,"Roy, UT"
1251,Marlborough,MA,-71.5468,42.3494,"Marlborough, MA"
1252,Milton,GA,-84.3138,34.1353,"Milton, GA"
1253,Issaquah,WA,-122.0471,47.544,"Issaquah, WA"
1254,Kendall West,FL,-80.4388,25.7065,"Kendall West, FL"
1255,Sun City,AZ,-112.2819,33.6165,"Sun City, AZ"
1256,Bartlesville,OK,-95.9453,36.7357,"Bartlesville, OK"
1257,Mission Bend,TX,-95.6657,29.6948,"Mission Bend, TX"
1258,Lancaster,TX,-96.7737,32.5922,"Lancaster, TX"
1259,Streamwood,IL,-88.1778,42.0209,"Streamwood, IL"
1260,Germantown,TN,-89.7825,35.0829,"Germantown, TN"
1261,Annapolis,MD,-76.5047,38.9706,"Annapolis, MD"
1262,Carol Stream,IL,-88.1308,41.9182,"Carol Stream, IL"
1263,Asheboro,NC,-79.8129,35.7158,"Asheboro, NC"
1264,Culver City,CA,-118.3968,34.0058,"Culver City, CA"
1265,Kalispell,MT,-114.3262,48.2156,"Kalispell, MT"
1266,Lynnwood,WA,-122.3033,47.8284,"Lynnwood, WA"
1267,Mooresville,NC,-80.8265,35.5849,"Mooresville, NC"
1268,Brookfield,WI,-88.1231,43.064,"Brookfield, WI"
1269,Crestview,FL,-86.5784,30.748,"Crestview, FL"
1270,Moses Lake,WA,-119.2761,47.128,"Moses Lake, WA"
1271,Woodlawn,MD,-76.7489,39.3054,"Woodlawn, MD"
1272,New Castle,PA,-80.3459,40.9956,"New Castle, PA"
1273,Olive Branch,MS,-89.8469,34.961,"Olive Branch, MS"
1274,Enterprise,AL,-85.8459,31.3276,"Enterprise, AL"
1275,Frankfort,KY,-84.8643,38.1924,"Frankfort, KY"
1276,Northglenn,CO,-104.9783,39.9108,"Northglenn, CO"
1277,Warren,OH,-80.8174,41.239,"Warren, OH"
1278,Duncanville,TX,-96.9127,32.646,"Duncanville, TX"
1279,Hurst,TX,-97.1808,32.8353,"Hurst, TX"
1280,Clermont,FL,-81.7259,28.5402,"Clermont, FL"
1281,Wheeling,IL,-87.924,42.1308,"Wheeling, IL"
1282,Fort Lee,NJ,-73.9712,40.8509,"Fort Lee, NJ"
1283,Severna Park,MD,-76.5687,39.087,"Severna Park, MD"
1284,Pacifica,CA,-122.4781,37.6112,"Pacifica, CA"
1285,Lake Worth,FL,-80.0591,26.6196,"Lake Worth, FL"
1286,Lebanon,TN,-86.3481,36.204,"Lebanon, TN"
1287,Eagle Mountain,UT,-112.0114,40.3137,"Eagle Mountain, UT"
1288,Reynoldsburg,OH,-82.7944,39.9587,"Reynoldsburg, OH"
1289,Oxford,MS,-89.5336,34.3627,"Oxford, MS"
1290,Rosenberg,TX,-95.822,29.546,"Rosenberg, TX"
1291,Martinez,CA,-122.116,37.9985,"Martinez, CA"
1292,Pleasant Grove,UT,-111.7412,40.3716,"Pleasant Grove, UT"
1293,Valrico,FL,-82.2293,27.9193,"Valrico, FL"
1294,Huber Heights,OH,-84.113,39.8595,"Huber Heights, OH"
1295,Stanton,CA,-117.9935,33.8002,"Stanton, CA"
1296,Security-Widefield,CO,-104.7142,38.7489,"Security-Widefield, CO"
1297,Menomonee Falls,WI,-88.1227,43.1487,"Menomonee Falls, WI"
1298,Granbury,TX,-97.7685,32.4484,"Granbury, TX"
1299,Waxahachie,TX,-96.8444,32.4032,"Waxahachie, TX"
1300,Richmond West,FL,-80.4297,25.6105,"Richmond West, FL"
1301,South Miami Heights,FL,-80.3862,25.5886,"South Miami Heights, FL"
1302,Holly Springs,NC,-78.8397,35.653,"Holly Springs, NC"
1303,Butler,PA,-79.8962,40.8616,"Butler, PA"
1304,Albertville,AL,-86.2107,34.2634,"Albertville, AL"
1305,London,KY,-84.0767,37.1175,"London, KY"
1306,Cottage Grove,MN,-92.9274,44.8161,"Cottage Grove, MN"
1307,St. Marys,GA,-81.5722,30.7567,"St. Marys, GA"
1308,Mechanicsville,VA,-77.3561,37.6262,"Mechanicsville, VA"
1309,Cleburne,TX,-97.4152,32.357,"Cleburne, TX"
1310,La Presa,CA,-117.0027,32.711,"La Presa, CA"
1311,Valley Stream,NY,-73.7044,40.6647,"Valley Stream, NY"
1312,Hanover Park,IL,-88.1447,41.9819,"Hanover Park, IL"
1313,Oswego,NY,-76.5005,43.4516,"Oswego, NY"
1314,East Meadow,NY,-73.5604,40.7197,"East Meadow, NY"
1315,Oregon City,OR,-122.5927,45.3415,"Oregon City, OR"
1316,Winter Springs,FL,-81.2704,28.6889,"Winter Springs, FL"
1317,Carpentersville,IL,-88.2895,42.1227,"Carpentersville, IL"
1318,Wildomar,CA,-117.2582,33.6173,"Wildomar, CA"
1319,Greenfield,WI,-88.0051,42.9619,"Greenfield, WI"
1320,Braintree Town,MA,-71.0022,42.2039,"Braintree Town, MA"
1321,Parkland,WA,-122.4376,47.1417,"Parkland, WA"
1322,Oakton,VA,-77.3016,38.8887,"Oakton, VA"
1323,Rock Island,IL,-90.5827,41.4699,"Rock Island, IL"
1324,West Fargo,ND,-96.9057,46.8573,"West Fargo, ND"
1325,Egypt Lake-Leto,FL,-82.5062,28.0177,"Egypt Lake-Leto, FL"
1326,Mount Juliet,TN,-86.5114,36.1991,"Mount Juliet, TN"
1327,San Juan,TX,-98.152,26.1903,"San Juan, TX"
1328,Land O' Lakes,FL,-82.4476,28.2075,"Land O' Lakes, FL"
1329,Georgetown,KY,-84.5482,38.2249,"Georgetown, KY"
1330,Portage,IN,-87.1792,41.5866,"Portage, IN"
1331,Aventura,FL,-80.1372,25.9565,"Aventura, FL"
1332,Owasso,OK,-95.8328,36.2882,"Owasso, OK"
1333,Park Ridge,IL,-87.8436,42.0125,"Park Ridge, IL"
1334,Commack,NY,-73.2834,40.8443,"Commack, NY"
1335,Foley,AL,-87.6649,30.3983,"Foley, AL"
1336,New Albany,IN,-85.8234,38.3089,"New Albany, IN"
1337,Oakville,MO,-90.3199,38.4472,"Oakville, MO"
1338,Benton,AR,-92.5712,34.5775,"Benton, AR"
1339,Merritt Island,FL,-80.6713,28.3146,"Merritt Island, FL"
1340,Meridian,MS,-88.6896,32.3846,"Meridian, MS"
1341,Kailua,HI,-157.7396,21.392,"Kailua, HI"
1342,Bettendorf,IA,-90.4764,41.5656,"Bettendorf, IA"
1343,Dunedin,FL,-82.7863,28.0329,"Dunedin, FL"
1344,Hilliard,OH,-83.1578,40.0353,"Hilliard, OH"
1345,Phenix City,AL,-85.0251,32.4588,"Phenix City, AL"
1346,Addison,IL,-88.0085,41.9314,"Addison, IL"
1347,West Hollywood,CA,-118.3718,34.0882,"West Hollywood, CA"
1348,Roseville,MN,-93.1545,45.0155,"Roseville, MN"
1349,Brighton,NY,-77.5835,43.1175,"Brighton, NY"
1350,Tucker,GA,-84.2021,33.8436,"Tucker, GA"
1351,Moorpark,CA,-118.877,34.2855,"Moorpark, CA"
1352,Richfield,MN,-93.2833,44.8762,"Richfield, MN"
1353,Monrovia,CA,-117.9921,34.165,"Monrovia, CA"
1354,Kearns,UT,-112.0093,40.652,"Kearns, UT"
1355,Oak Creek,WI,-87.9009,42.8803,"Oak Creek, WI"
1356,Lincoln Park,MI,-83.1811,42.2432,"Lincoln Park, MI"
1357,Claremont,CA,-117.7153,34.1259,"Claremont, CA"
1358,Oswego,IL,-88.3372,41.6834,"Oswego, IL"
1359,Post Falls,ID,-116.9385,47.7213,"Post Falls, ID"
1360,Peachtree City,GA,-84.5712,33.3943,"Peachtree City, GA"
1361,Lauderdale Lakes,FL,-80.2017,26.1682,"Lauderdale Lakes, FL"
1362,Meadow Woods,FL,-81.3467,28.3698,"Meadow Woods, FL"
1363,Pahrump,NV,-116.0176,36.2411,"Pahrump, NV"
1364,Portsmouth,OH,-82.9446,38.7539,"Portsmouth, OH"
1365,University,FL,-81.199,28.59,"University, FL"
1366,Martinez,GA,-82.0985,33.5209,"Martinez, GA"
1367,Shawnee,OK,-96.965,35.3529,"Shawnee, OK"
1368,Gillette,WY,-105.4983,44.2752,"Gillette, WY"
1369,Elmont,NY,-73.7078,40.7033,"Elmont, NY"
1370,Prattville,AL,-86.4588,32.4605,"Prattville, AL"
1371,Woodburn,OR,-122.8603,45.1473,"Woodburn, OR"
1372,Watertown Town,MA,-71.1774,42.37,"Watertown Town, MA"
1373,Calumet City,IL,-87.5505,41.6134,"Calumet City, IL"
1374,San Juan Capistrano,CA,-117.6544,33.5009,"San Juan Capistrano, CA"
1375,Franklin,WI,-88.0104,42.8854,"Franklin, WI"
1376,Temple City,CA,-118.0579,34.1021,"Temple City, CA"
1377,Cooper City,FL,-80.2862,26.0463,"Cooper City, FL"
1378,Chillum,MD,-76.979,38.9667,"Chillum, MD"
1379,El Mirage,AZ,-112.3271,33.5905,"El Mirage, AZ"
1380,LaGrange,GA,-85.0384,33.0274,"LaGrange, GA"
1381,La Vergne,TN,-86.5582,36.0203,"La Vergne, TN"
1382,Middletown,DE,-75.7166,39.4453,"Middletown, DE"
1383,Mount Pleasant,MI,-84.7759,43.5966,"Mount Pleasant, MI"
1384,Junction City,KS,-96.8496,39.0271,"Junction City, KS"
1385,Inver Grove Heights,MN,-93.0596,44.8247,"Inver Grove Heights, MN"
1386,Navarre,FL,-86.8907,30.4174,"Navarre, FL"
1387,Monroe,NC,-80.5595,35.0061,"Monroe, NC"
1388,Bell,CA,-118.1798,33.9801,"Bell, CA"
1389,Gahanna,OH,-82.8637,40.0251,"Gahanna, OH"
1390,Sanford,NC,-79.1772,35.4874,"Sanford, NC"
1391,Riviera Beach,FL,-80.0742,26.7812,"Riviera Beach, FL"
1392,Wildwood,MO,-90.6699,38.5799,"Wildwood, MO"
1393,Tooele,UT,-112.3082,40.5393,"Tooele, UT"
1394,Upper Arlington,OH,-83.0704,40.0272,"Upper Arlington, OH"
1395,Auburn,CA,-121.0778,38.895,"Auburn, CA"
1396,Plainfield,IN,-86.3717,39.6953,"Plainfield, IN"
1397,Olney,MD,-77.0715,39.1465,"Olney, MD"
1398,Oak Harbor,WA,-122.6333,48.2965,"Oak Harbor, WA"
1399,Manhattan Beach,CA,-118.3972,33.8895,"Manhattan Beach, CA"
1400,Carrollwood,FL,-82.5149,28.0577,"Carrollwood, FL"
1401,La Porte,TX,-95.0484,29.6689,"La Porte, TX"
1402,Englewood,CO,-104.9942,39.6468,"Englewood, CO"
1403,Randallstown,MD,-76.8024,39.3723,"Randallstown, MD"
1404,Brunswick,OH,-81.8198,41.2464,"Brunswick, OH"
1405,East Point,GA,-84.4701,33.6696,"East Point, GA"
1406,DeLand,FL,-81.2873,29.0224,"DeLand, FL"
1407,Pleasant Hill,CA,-122.0759,37.954,"Pleasant Hill, CA"
1408,Golden Glades,FL,-80.2013,25.9129,"Golden Glades, FL"
1409,Merrillville,IN,-87.3197,41.4728,"Merrillville, IN"
1410,Stow,OH,-81.4344,41.1765,"Stow, OH"
1411,Orangevale,CA,-121.2209,38.6881,"Orangevale, CA"
1412,Calhoun,GA,-84.9391,34.4918,"Calhoun, GA"
1413,Leawood,KS,-94.6258,38.9076,"Leawood, KS"
1414,Oildale,CA,-119.0279,35.4249,"Oildale, CA"
1415,Menlo Park,CA,-122.1672,37.4686,"Menlo Park, CA"
1416,Sun Prairie,WI,-89.2358,43.1827,"Sun Prairie, WI"
1417,New City,NY,-73.9909,41.1543,"New City, NY"
1418,Arcata,CA,-124.0757,40.8615,"Arcata, CA"
1419,Lockport,NY,-78.6956,43.1698,"Lockport, NY"
1420,Boardman,OH,-80.6671,41.0334,"Boardman, OH"
1421,Owings Mills,MD,-76.7913,39.4115,"Owings Mills, MD"
1422,Pullman,WA,-117.1669,46.734,"Pullman, WA"
1423,Nacogdoches,TX,-94.6528,31.6134,"Nacogdoches, TX"
1424,Kearney,NE,-99.0834,40.701,"Kearney, NE"
1425,Ferry Pass,FL,-87.1903,30.5203,"Ferry Pass, FL"
1426,Vestavia Hills,AL,-86.7438,33.4518,"Vestavia Hills, AL"
1427,North Ridgeville,OH,-82.0194,41.3851,"North Ridgeville, OH"
1428,Evans,GA,-82.1351,33.5619,"Evans, GA"
1429,Socorro,TX,-106.2601,31.6384,"Socorro, TX"
1430,Randolph Town,MA,-71.0539,42.1778,"Randolph Town, MA"
1431,Norristown,PA,-75.3398,40.1224,"Norristown, PA"
1432,Dakota Ridge,CO,-105.1344,39.6192,"Dakota Ridge, CO"
1433,Redmond,OR,-121.1798,44.2631,"Redmond, OR"
1434,Firestone,CO,-104.9494,40.1563,"Firestone, CO"
1435,Goshen,IN,-85.8308,41.5743,"Goshen, IN"
1436,Russellville,AR,-93.1383,35.2763,"Russellville, AR"
1437,Grass Valley,CA,-121.0521,39.2237,"Grass Valley, CA"
1438,Parkland,FL,-80.2533,26.3218,"Parkland, FL"
1439,University City,MO,-90.3315,38.6657,"University City, MO"
1440,Midvale,UT,-111.8928,40.6148,"Midvale, UT"
1441,Franklin Town,MA,-71.4113,42.0862,"Franklin Town, MA"
1442,Buenaventura Lakes,FL,-81.3539,28.3349,"Buenaventura Lakes, FL"
1443,Kennesaw,GA,-84.6177,34.026,"Kennesaw, GA"
1444,Adelanto,CA,-117.4397,34.5815,"Adelanto, CA"
1445,Carlsbad,NM,-104.2389,32.4011,"Carlsbad, NM"
1446,University Place,WA,-122.5461,47.2147,"University Place, WA"
1447,Chester,PA,-75.3718,39.8456,"Chester, PA"
1448,Douglasville,GA,-84.7065,33.7384,"Douglasville, GA"
1449,Salisbury,NC,-80.4909,35.6656,"Salisbury, NC"
1450,Laramie,WY,-105.6085,41.3099,"Laramie, WY"
1451,Randolph,MA,-71.0412,42.1626,"Randolph, MA"
1452,Lake Stevens,WA,-122.096,48.0028,"Lake Stevens, WA"
1453,Foster City,CA,-122.2659,37.5553,"Foster City, CA"
1454,Valparaiso,IN,-87.0507,41.4782,"Valparaiso, IN"
1455,Fairborn,OH,-84.0093,39.801,"Fairborn, OH"
1456,Estero,FL,-81.7951,26.4277,"Estero, FL"
1457,Mason,OH,-84.3023,39.3571,"Mason, OH"
1458,Cottonwood Heights,UT,-111.8144,40.6137,"Cottonwood Heights, UT"
1459,Sonoma,CA,-122.4598,38.2902,"Sonoma, CA"
1460,French Valley,CA,-117.1069,33.5998,"French Valley, CA"
1461,Ken Caryl,CO,-105.1144,39.577,"Ken Caryl, CO"
1462,Montgomery Village,MD,-77.1957,39.1783,"Montgomery Village, MD"
1463,Beverly Hills,CA,-118.4021,34.0786,"Beverly Hills, CA"
1464,Galesburg,IL,-90.3763,40.9506,"Galesburg, IL"
1465,Foothill Farms,CA,-121.3475,38.6867,"Foothill Farms, CA"
1466,Kaneohe,HI,-157.7904,21.4062,"Kaneohe, HI"
1467,Westmont,CA,-118.3018,33.9417,"Westmont, CA"
1468,Warsaw,IN,-85.8464,41.2448,"Warsaw, IN"
1469,Fair Oaks,VA,-77.3586,38.8653,"Fair Oaks, VA"
1470,San Dimas,CA,-117.809,34.1082,"San Dimas, CA"
1471,Glendale Heights,IL,-88.0785,41.9196,"Glendale Heights, IL"
1472,Dana Point,CA,-117.6968,33.4733,"Dana Point, CA"
1473,Midlothian,TX,-96.9892,32.4668,"Midlothian, TX"
1474,Newark,DE,-75.7573,39.6776,"Newark, DE"
1475,Alamogordo,NM,-105.9624,32.8837,"Alamogordo, NM"
1476,Alabaster,AL,-86.8225,33.2198,"Alabaster, AL"
1477,Lexington,MA,-71.2307,42.4456,"Lexington, MA"
1478,Deer Park,TX,-95.1151,29.6898,"Deer Park, TX"
1479,Long Beach,NY,-73.666,40.5887,"Long Beach, NY"
1480,Woodridge,IL,-88.0408,41.7368,"Woodridge, IL"
1481,West Little River,FL,-80.2367,25.857,"West Little River, FL"
1482,Pikesville,MD,-76.702,39.3893,"Pikesville, MD"
1483,Bridgeton,NJ,-75.2281,39.4286,"Bridgeton, NJ"
1484,Greer,SC,-82.2315,34.9313,"Greer, SC"
1485,Springville,UT,-111.6206,40.1638,"Springville, UT"
1486,Saratoga Springs,UT,-111.9152,40.3449,"Saratoga Springs, UT"
1487,Huntington Station,NY,-73.405,40.8446,"Huntington Station, NY"
1488,Copperas Cove,TX,-97.914,31.1192,"Copperas Cove, TX"
1489,American Fork,UT,-111.7952,40.3792,"American Fork, UT"
1490,Franklin,NJ,-74.5886,41.1101,"Franklin, NJ"
1491,Andover,MN,-93.3265,45.2571,"Andover, MN"
1492,Matthews,NC,-80.7101,35.1195,"Matthews, NC"
1493,Woodstock,GA,-84.509,34.1026,"Woodstock, GA"
1494,Fallbrook,CA,-117.2259,33.3693,"Fallbrook, CA"
1495,Florence,KY,-84.647,38.99,"Florence, KY"
1496,Fruit Cove,FL,-81.6176,30.0972,"Fruit Cove, FL"
1497,Northbrook,IL,-87.8353,42.1292,"Northbrook, IL"
1498,Fair Lawn,NJ,-74.1177,40.9359,"Fair Lawn, NJ"
1499,St. Charles,IL,-88.3109,41.9193,"St. Charles, IL"
1500,San Luis,AZ,-114.7089,32.4911,"San Luis, AZ"
1501,Fairmont,WV,-80.1491,39.4768,"Fairmont, WV"
1502,Ridgecrest,CA,-117.6621,35.6308,"Ridgecrest, CA"
1503,Massillon,OH,-81.5254,40.7838,"Massillon, OH"
1504,Starkville,MS,-88.8297,33.4608,"Starkville, MS"
1505,Horizon West,FL,-81.6145,28.4417,"Horizon West, FL"
1506,Harker Heights,TX,-97.6445,31.0572,"Harker Heights, TX"
1507,Elk Grove Village,IL,-87.9921,42.0063,"Elk Grove Village, IL"
1508,Kaysville,UT,-111.9456,41.029,"Kaysville, UT"
1509,Lawndale,CA,-118.3531,33.8884,"Lawndale, CA"
1510,Southlake,TX,-97.1503,32.9545,"Southlake, TX"
1511,Savage,MN,-93.3631,44.7544,"Savage, MN"
1512,Redan,GA,-84.1644,33.7394,"Redan, GA"
1513,Des Moines,WA,-122.3157,47.3915,"Des Moines, WA"
1514,Bethel Park,PA,-80.0364,40.3239,"Bethel Park, PA"
1515,Franklin Square,NY,-73.6775,40.7002,"Franklin Square, NY"
1516,East Lake,FL,-82.6868,28.1205,"East Lake, FL"
1517,Kahului,HI,-156.4603,20.8715,"Kahului, HI"
1518,Dania Beach,FL,-80.1637,26.0594,"Dania Beach, FL"
1519,Spring Valley,NY,-74.0486,41.1151,"Spring Valley, NY"
1520,Bowling Green,OH,-83.65,41.3773,"Bowling Green, OH"
1521,College Park,MD,-76.9337,38.996,"College Park, MD"
1522,Coos Bay,OR,-124.233,43.3789,"Coos Bay, OR"
1523,Smithfield,NC,-78.3497,35.5131,"Smithfield, NC"
1524,Spanaway,WA,-122.4233,47.0979,"Spanaway, WA"
1525,Clearfield,UT,-112.0237,41.103,"Clearfield, UT"
1526,Liberty,MO,-94.4191,39.2394,"Liberty, MO"
1527,Marrero,LA,-90.1127,29.8871,"Marrero, LA"
1528,Eastpointe,MI,-82.9461,42.4657,"Eastpointe, MI"
1529,Pekin,IL,-89.6262,40.5679,"Pekin, IL"
1530,Westlake,OH,-81.9295,41.4524,"Westlake, OH"
1531,Centereach,NY,-73.0808,40.8696,"Centereach, NY"
1532,Chillicothe,OH,-82.9937,39.3393,"Chillicothe, OH"
1533,La Verne,CA,-117.7702,34.1208,"La Verne, CA"
1534,Placerville,CA,-120.7978,38.7308,"Placerville, CA"
1535,Martinsville,VA,-79.8636,36.6827,"Martinsville, VA"
1536,Rome,NY,-75.4909,43.226,"Rome, NY"
1537,Pueblo West,CO,-104.7266,38.3551,"Pueblo West, CO"
1538,Central Islip,NY,-73.1945,40.7837,"Central Islip, NY"
1539,Uniondale,NY,-73.5947,40.7176,"Uniondale, NY"
1540,Garfield,NJ,-74.1085,40.8791,"Garfield, NJ"
1541,Prairieville,LA,-90.9571,30.3151,"Prairieville, LA"
1542,Parkville,MD,-76.5519,39.3832,"Parkville, MD"
1543,Spring Valley,CA,-116.9766,32.7316,"Spring Valley, CA"
1544,Bel Air North,MD,-76.3733,39.5544,"Bel Air North, MD"
1545,Hopkinsville,KY,-87.4776,36.8386,"Hopkinsville, KY"
1546,Rochester,NH,-70.9787,43.299,"Rochester, NH"
1547,Milledgeville,GA,-83.2414,33.0874,"Milledgeville, GA"
1548,Syracuse,UT,-112.0698,41.086,"Syracuse, UT"
1549,Eldersburg,MD,-76.9529,39.4041,"Eldersburg, MD"
1550,Sherwood,AR,-92.2028,34.8508,"Sherwood, AR"
1551,Garner,NC,-78.6196,35.6934,"Garner, NC"
1552,Key West,FL,-81.7768,24.5637,"Key West, FL"
1553,Miami Lakes,FL,-80.3214,25.9125,"Miami Lakes, FL"
1554,Petersburg,VA,-77.3913,37.2043,"Petersburg, VA"
1555,North Olmsted,OH,-81.919,41.415,"North Olmsted, OH"
1556,Wheat Ridge,CO,-105.1029,39.7728,"Wheat Ridge, CO"
1557,Cibolo,TX,-98.2123,29.5639,"Cibolo, TX"
1558,Alliance,OH,-81.1189,40.9107,"Alliance, OH"
1559,Banning,CA,-116.8992,33.946,"Banning, CA"
1560,Laguna Hills,CA,-117.6992,33.592,"Laguna Hills, CA"
1561,Princeton,NJ,-74.6693,40.3563,"Princeton, NJ"
1562,Athens,AL,-86.951,34.7847,"Athens, AL"
1563,Oceanside,NY,-73.6364,40.6328,"Oceanside, NY"
1564,Springfield,VA,-77.1839,38.7809,"Springfield, VA"
1565,Naugatuck,CT,-73.0518,41.489,"Naugatuck, CT"
1566,Columbus,MS,-88.4096,33.5088,"Columbus, MS"
1567,South Riding,VA,-77.5132,38.912,"South Riding, VA"
1568,Mundelein,IL,-88.0101,42.2691,"Mundelein, IL"
1569,Fair Oaks,CA,-121.2497,38.6504,"Fair Oaks, CA"
1570,San Pablo,CA,-122.3425,37.9628,"San Pablo, CA"
1571,Rexburg,ID,-111.792,43.8224,"Rexburg, ID"
1572,Nogales,AZ,-110.9336,31.3624,"Nogales, AZ"
1573,Nicholasville,KY,-84.5669,37.8902,"Nicholasville, KY"
1574,Goleta,CA,-119.8596,34.436,"Goleta, CA"
1575,Opelika,AL,-85.3769,32.6612,"Opelika, AL"
1576,Butte,MT,-112.6571,45.902,"Butte, MT"
1577,Algonquin,IL,-88.3159,42.1629,"Algonquin, IL"
1578,Lakeside,FL,-81.7674,30.1356,"Lakeside, FL"
1579,Burlingame,CA,-122.3669,37.586,"Burlingame, CA"
1580,Aiken,SC,-81.7268,33.531,"Aiken, SC"
1581,Princeton,FL,-80.3971,25.5396,"Princeton, FL"
1582,Lawrenceville,GA,-83.9931,33.9523,"Lawrenceville, GA"
1583,Winter Park,FL,-81.3438,28.5987,"Winter Park, FL"
1584,Granger,IN,-86.135,41.7373,"Granger, IN"
1585,Fitchburg,WI,-89.4255,42.9859,"Fitchburg, WI"
1586,Wooster,OH,-81.9335,40.8171,"Wooster, OH"
1587,Fountain,CO,-104.6829,38.6886,"Fountain, CO"
1588,Needham,MA,-71.2411,42.2814,"Needham, MA"
1589,Brooklyn Center,MN,-93.3162,45.0681,"Brooklyn Center, MN"
1590,Bay Shore,NY,-73.2505,40.7317,"Bay Shore, NY"
1591,Kerrville,TX,-99.132,30.0398,"Kerrville, TX"
1592,Barstow,CA,-117.0472,34.8661,"Barstow, CA"
1593,Canton,GA,-84.49,34.2467,"Canton, GA"
1594,Auburn,NY,-76.5684,42.9338,"Auburn, NY"
1595,Orcutt,CA,-120.4269,34.8668,"Orcutt, CA"
1596,Crown Point,IN,-87.3457,41.4141,"Crown Point, IN"
1597,Windsor,CO,-104.9213,40.4693,"Windsor, CO"
1598,Gloucester,MA,-70.6897,42.626,"Gloucester, MA"
1599,Sterling,VA,-77.405,39.0052,"Sterling, VA"
1600,Gurnee,IL,-87.9392,42.3708,"Gurnee, IL"
1601,Orangeburg,SC,-80.867,33.4928,"Orangeburg, SC"
1602,Holladay,UT,-111.8226,40.6599,"Holladay, UT"
1603,Fuquay-Varina,NC,-78.7794,35.5958,"Fuquay-Varina, NC"
1604,Newington,CT,-72.7308,41.687,"Newington, CT"
1605,Chamblee,GA,-84.3008,33.8842,"Chamblee, GA"
1606,Ladera Ranch,CA,-117.6416,33.5491,"Ladera Ranch, CA"
1607,Peru,IL,-89.137,41.3484,"Peru, IL"
1608,Cornelius,NC,-80.8801,35.4725,"Cornelius, NC"
1609,North Tonawanda,NY,-78.8659,43.0457,"North Tonawanda, NY"
1610,Long Branch,NJ,-73.9915,40.2965,"Long Branch, NJ"
1611,Santa Paula,CA,-119.0698,34.3521,"Santa Paula, CA"
1612,Los Gatos,CA,-121.956,37.2303,"Los Gatos, CA"
1613,Westchester,FL,-80.3358,25.7474,"Westchester, FL"
1614,South Lake Tahoe,CA,-119.9828,38.9393,"South Lake Tahoe, CA"
1615,San Carlos,CA,-122.268,37.4982,"San Carlos, CA"
1616,Clinton,IA,-90.2408,41.8434,"Clinton, IA"
1617,Saratoga,CA,-122.0263,37.2684,"Saratoga, CA"
1618,Golden Gate,FL,-81.7031,26.1844,"Golden Gate, FL"
1619,Los Altos,CA,-122.0966,37.3685,"Los Altos, CA"
1620,Ballwin,MO,-90.55,38.5951,"Ballwin, MO"
1621,Atascadero,CA,-120.6858,35.4827,"Atascadero, CA"
1622,North Royalton,OH,-81.7452,41.3138,"North Royalton, OH"
1623,Somerset,KY,-84.6091,37.0815,"Somerset, KY"
1624,Milford Mill,MD,-76.7668,39.3444,"Milford Mill, MD"
1625,Stockbridge,GA,-84.2294,33.5253,"Stockbridge, GA"
1626,Manchester,CT,-72.5192,41.7801,"Manchester, CT"
1627,East Liverpool,OH,-80.5677,40.6333,"East Liverpool, OH"
1628,Rahway,NJ,-74.2807,40.6077,"Rahway, NJ"
1629,Madison Heights,MI,-83.1034,42.5073,"Madison Heights, MI"
1630,Williston,ND,-103.6364,48.1814,"Williston, ND"
1631,Eagle,ID,-116.3862,43.7223,"Eagle, ID"
1632,Lake Magdalene,FL,-82.4791,28.0875,"Lake Magdalene, FL"
1633,Carney,MD,-76.5236,39.405,"Carney, MD"
1634,Maryville,TN,-83.9789,35.7468,"Maryville, TN"
1635,Walnut,CA,-117.8593,34.0334,"Walnut, CA"
1636,Suisun City,CA,-122.009,38.2473,"Suisun City, CA"
1637,Garden City,KS,-100.8529,37.9754,"Garden City, KS"
1638,Texarkana,AR,-93.996,33.4361,"Texarkana, AR"
1639,Kent,OH,-81.361,41.149,"Kent, OH"
1640,North Chicago,IL,-87.8596,42.3172,"North Chicago, IL"
1641,Greenville,MS,-91.0514,33.385,"Greenville, MS"
1642,Aberdeen,WA,-123.8094,46.9757,"Aberdeen, WA"
1643,Duluth,GA,-84.1492,34.0053,"Duluth, GA"
1644,Winona,MN,-91.6684,44.0505,"Winona, MN"
1645,O'Fallon,IL,-89.9155,38.5976,"O'Fallon, IL"
1646,Ukiah,CA,-123.2105,39.1463,"Ukiah, CA"
1647,Atwater,CA,-120.5981,37.3543,"Atwater, CA"
1648,Sanford,ME,-70.7573,43.4244,"Sanford, ME"
1649,Highland Park,IL,-87.8105,42.1823,"Highland Park, IL"
1650,Drexel Heights,AZ,-111.0478,32.1457,"Drexel Heights, AZ"
1651,Westfield,NJ,-74.3433,40.6515,"Westfield, NJ"
1652,Hermiston,OR,-119.2858,45.8323,"Hermiston, OR"
1653,Fortuna Foothills,AZ,-114.3973,32.6616,"Fortuna Foothills, AZ"
1654,Oak Park,MI,-83.1824,42.4649,"Oak Park, MI"
1655,Central,LA,-91.0369,30.5593,"Central, LA"
1656,Chicago Heights,IL,-87.6345,41.5101,"Chicago Heights, IL"
1657,East Palo Alto,CA,-122.1352,37.4671,"East Palo Alto, CA"
1658,Newberg,OR,-122.9601,45.3075,"Newberg, OR"
1659,Norwood,MA,-71.1948,42.1861,"Norwood, MA"
1660,Wellesley,MA,-71.2855,42.3043,"Wellesley, MA"
1661,Lewes,DE,-75.1448,38.7777,"Lewes, DE"
1662,Washington,UT,-113.4877,37.1304,"Washington, UT"
1663,Port Chester,NY,-73.668,41.0052,"Port Chester, NY"
1664,Oak Ridge,TN,-84.2938,35.9639,"Oak Ridge, TN"
1665,West Falls Church,VA,-77.1878,38.8648,"West Falls Church, VA"
1666,Laplace,LA,-90.4758,30.0731,"Laplace, LA"
1667,Athens,OH,-82.0988,39.3269,"Athens, OH"
1668,SeaTac,WA,-122.2986,47.4444,"SeaTac, WA"
1669,Raytown,MO,-94.4641,38.9944,"Raytown, MO"
1670,Southgate,MI,-83.2057,42.2047,"Southgate, MI"
1671,Harrison,NY,-73.7192,41.0233,"Harrison, NY"
1672,Niles,IL,-87.8099,42.0278,"Niles, IL"
1673,Fernandina Beach,FL,-81.4504,30.6579,"Fernandina Beach, FL"
1674,Big Spring,TX,-101.4802,32.2387,"Big Spring, TX"
1675,Bella Vista,AR,-94.2707,36.4667,"Bella Vista, AR"
1676,East Haven,CT,-72.8577,41.2984,"East Haven, CT"
1677,Milton,PA,-76.8507,41.009,"Milton, PA"
1678,Morrisville,NC,-78.8348,35.8367,"Morrisville, NC"
1679,Casselberry,FL,-81.3218,28.6625,"Casselberry, FL"
1680,Plattsburgh,NY,-73.4563,44.6951,"Plattsburgh, NY"
1681,Seguin,TX,-97.9671,29.5889,"Seguin, TX"
1682,Shirley,NY,-72.8743,40.7949,"Shirley, NY"
1683,Belle Glade,FL,-80.6672,26.692,"Belle Glade, FL"
1684,Wasco,CA,-119.3671,35.5938,"Wasco, CA"
1685,Lake in the Hills,IL,-88.3476,42.1913,"Lake in the Hills, IL"
1686,Agawam Town,MA,-72.6526,42.0657,"Agawam Town, MA"
1687,East Lake-Orient Park,FL,-82.3653,27.9971,"East Lake-Orient Park, FL"
1688,Burton,MI,-83.6175,42.9974,"Burton, MI"
1689,Geneva,NY,-76.9827,42.8644,"Geneva, NY"
1690,Fleming Island,FL,-81.7124,30.0988,"Fleming Island, FL"
1691,Schererville,IN,-87.444,41.486,"Schererville, IN"
1692,Independence,KY,-84.5492,38.951,"Independence, KY"
1693,West Springfield Town,MA,-72.6503,42.1253,"West Springfield Town, MA"
1694,Burlington,IA,-91.1247,40.8072,"Burlington, IA"
1695,Shamokin,PA,-76.555,40.7883,"Shamokin, PA"
1696,New Iberia,LA,-91.8202,30.0049,"New Iberia, LA"
1697,Northampton,MA,-72.6745,42.3266,"Northampton, MA"
1698,Englewood,NJ,-73.9736,40.8917,"Englewood, NJ"
1699,Austintown,OH,-80.7405,41.0932,"Austintown, OH"
1700,Crofton,MD,-76.68,39.0144,"Crofton, MD"
1701,Mehlville,MO,-90.3149,38.5018,"Mehlville, MO"
1702,Zionsville,IN,-86.3182,39.9897,"Zionsville, IN"
1703,Pasadena,MD,-76.5537,39.1552,"Pasadena, MD"
1704,Winchester,NV,-115.1299,36.1368,"Winchester, NV"
1705,Vineyard,CA,-121.319,38.4744,"Vineyard, CA"
1706,Burbank,IL,-87.7686,41.7444,"Burbank, IL"
1707,Lumberton,NC,-79.0186,34.6312,"Lumberton, NC"
1708,Benicia,CA,-122.1525,38.0725,"Benicia, CA"
1709,Jacksonville,AR,-92.1302,34.8807,"Jacksonville, AR"
1710,Rockledge,FL,-80.732,28.3201,"Rockledge, FL"
1711,Henderson,KY,-87.5798,37.8397,"Henderson, KY"
1712,Graham,WA,-122.2756,47.0407,"Graham, WA"
1713,Drexel Hill,PA,-75.3039,39.9495,"Drexel Hill, PA"
1714,Monterey,CA,-121.8807,36.5922,"Monterey, CA"
1715,Newburgh,NY,-74.0205,41.5037,"Newburgh, NY"
1716,Converse,TX,-98.3084,29.5091,"Converse, TX"
1717,Granite City,IL,-90.1266,38.7292,"Granite City, IL"
1718,Saugus,MA,-71.0145,42.4681,"Saugus, MA"
1719,Aberdeen,SD,-98.468,45.4646,"Aberdeen, SD"
1720,Perry Hall,MD,-76.4781,39.4067,"Perry Hall, MD"
1721,Yukon,OK,-97.7639,35.5201,"Yukon, OK"
1722,South Laurel,MD,-76.8456,39.0603,"South Laurel, MD"
1723,Sonora,CA,-120.3828,37.9819,"Sonora, CA"
1724,Melrose,MA,-71.059,42.4556,"Melrose, MA"
1725,Wisconsin Rapids,WI,-89.8265,44.3927,"Wisconsin Rapids, WI"
1726,Galt,CA,-121.3,38.2693,"Galt, CA"
1727,Hutto,TX,-97.5516,30.5373,"Hutto, TX"
1728,Forest Hills,MI,-85.4895,42.9577,"Forest Hills, MI"
1729,Bixby,OK,-95.8773,35.9454,"Bixby, OK"
1730,Hobart,IN,-87.2729,41.5139,"Hobart, IN"
1731,Oakdale,MN,-92.9641,44.9876,"Oakdale, MN"
1732,Mililani Town,HI,-158.0147,21.4465,"Mililani Town, HI"
1733,Sunbury,PA,-76.7874,40.8617,"Sunbury, PA"
1734,New Smyrna Beach,FL,-80.9651,29.0249,"New Smyrna Beach, FL"
1735,Tualatin,OR,-122.7746,45.3772,"Tualatin, OR"
1736,Fridley,MN,-93.2595,45.0841,"Fridley, MN"
1737,East Chicago,IN,-87.4536,41.6484,"East Chicago, IN"
1738,Kirkwood,MO,-90.4203,38.5788,"Kirkwood, MO"
1739,Sanger,CA,-119.5575,36.699,"Sanger, CA"
1740,Morgan City,LA,-91.192,29.7041,"Morgan City, LA"
1741,Ramsey,MN,-93.4494,45.2617,"Ramsey, MN"
1742,Ruston,LA,-92.6363,32.5329,"Ruston, LA"
1743,Jeffersontown,KY,-85.5701,38.2048,"Jeffersontown, KY"
1744,Glen Ellyn,IL,-88.0629,41.8667,"Glen Ellyn, IL"
1745,Isla Vista,CA,-119.8581,34.4144,"Isla Vista, CA"
1746,Ca챰on City,CO,-105.2203,38.443,"Ca챰on City, CO"
1747,Monticello,MN,-93.7984,45.298,"Monticello, MN"
1748,Ashtabula,OH,-80.7984,41.8806,"Ashtabula, OH"
1749,Danvers,MA,-70.9494,42.574,"Danvers, MA"
1750,Bridgewater Town,MA,-70.9749,41.9728,"Bridgewater Town, MA"
1751,Mint Hill,NC,-80.6533,35.1782,"Mint Hill, NC"
1752,Milton,MA,-71.0844,42.2413,"Milton, MA"
1753,Statesville,NC,-80.8714,35.7842,"Statesville, NC"
1754,Short Pump,VA,-77.6201,37.6549,"Short Pump, VA"
1755,Gloversville,NY,-74.3465,43.0491,"Gloversville, NY"
1756,Summerlin South,NV,-115.3324,36.1242,"Summerlin South, NV"
1757,Gladstone,MO,-94.5593,39.2133,"Gladstone, MO"
1758,Fremont,NE,-96.4879,41.4396,"Fremont, NE"
1759,Garfield Heights,OH,-81.6038,41.4199,"Garfield Heights, OH"
1760,Imperial Beach,CA,-117.1184,32.5689,"Imperial Beach, CA"
1761,Seneca,SC,-82.9609,34.6815,"Seneca, SC"
1762,Lansing,IL,-87.5462,41.5648,"Lansing, IL"
1763,Millville,NJ,-75.0561,39.3903,"Millville, NJ"
1764,Monroeville,PA,-79.7605,40.4262,"Monroeville, PA"
1765,St. Helens,OR,-122.8164,45.8571,"St. Helens, OR"
1766,Paragould,AR,-90.5149,36.0555,"Paragould, AR"
1767,Bergenfield,NJ,-73.9983,40.9236,"Bergenfield, NJ"
1768,Deer Park,NY,-73.3219,40.7623,"Deer Park, NY"
1769,Horn Lake,MS,-90.0501,34.9512,"Horn Lake, MS"
1770,Oakleaf Plantation,FL,-81.8337,30.1689,"Oakleaf Plantation, FL"
1771,Prior Lake,MN,-93.4409,44.7251,"Prior Lake, MN"
1772,Huntley,IL,-88.433,42.1599,"Huntley, IL"
1773,Maple Valley,WA,-122.0368,47.3659,"Maple Valley, WA"
1774,Easton,PA,-75.2209,40.6858,"Easton, PA"
1775,Oak Forest,IL,-87.7527,41.6054,"Oak Forest, IL"
1776,Glen Cove,NY,-73.6287,40.8709,"Glen Cove, NY"
1777,West Islip,NY,-73.2971,40.7097,"West Islip, NY"
1778,West Whittier-Los Nietos,CA,-118.0689,33.9759,"West Whittier-Los Nietos, CA"
1779,Indiana,PA,-79.1552,40.622,"Indiana, PA"
1780,Shoreview,MN,-93.1358,45.0842,"Shoreview, MN"
1781,Windsor,CA,-122.8086,38.5417,"Windsor, CA"
1782,Sterling,IL,-89.6956,41.7995,"Sterling, IL"
1783,Colleyville,TX,-97.1486,32.8913,"Colleyville, TX"
1784,Wilmette,IL,-87.7282,42.0771,"Wilmette, IL"
1785,Plum,PA,-79.7496,40.5024,"Plum, PA"
1786,Mount Pleasant,WI,-87.8875,42.7129,"Mount Pleasant, WI"
1787,Dodge City,KS,-100.0183,37.761,"Dodge City, KS"
1788,McHenry,IL,-88.2931,42.3388,"McHenry, IL"
1789,Burlington,MA,-71.2027,42.5022,"Burlington, MA"
1790,Waterville,ME,-69.6624,44.5441,"Waterville, ME"
1791,Norfolk,NE,-97.4208,42.0327,"Norfolk, NE"
1792,Shaker Heights,OH,-81.5496,41.4744,"Shaker Heights, OH"
1793,Erie,CO,-105.0398,40.0403,"Erie, CO"
1794,Brownsburg,IN,-86.3824,39.833,"Brownsburg, IN"
1795,Chaska,MN,-93.6092,44.8164,"Chaska, MN"
1796,Shelby,NC,-81.5451,35.2904,"Shelby, NC"
1797,Maywood,CA,-118.1877,33.9885,"Maywood, CA"
1798,Wakefield,MA,-71.0656,42.5035,"Wakefield, MA"
1799,Maryland Heights,MO,-90.4749,38.7189,"Maryland Heights, MO"
1800,Magna,UT,-112.1599,40.7634,"Magna, UT"
1801,Xenia,OH,-83.9414,39.6828,"Xenia, OH"
1802,Belmont,CA,-122.2955,37.5154,"Belmont, CA"
1803,Allen Park,MI,-83.2107,42.2595,"Allen Park, MI"
1804,Reisterstown,MD,-76.8144,39.4552,"Reisterstown, MD"
1805,New Lenox,IL,-87.97,41.5097,"New Lenox, IL"
1806,Hanahan,SC,-80.0027,32.9302,"Hanahan, SC"
1807,Kinston,NC,-77.5936,35.2748,"Kinston, NC"
1808,Searcy,AR,-91.7351,35.2418,"Searcy, AR"
1809,New London,CT,-72.1023,41.3502,"New London, CT"
1810,Dix Hills,NY,-73.337,40.8035,"Dix Hills, NY"
1811,West Chicago,IL,-88.2253,41.896,"West Chicago, IL"
1812,Kiryas Joel,NY,-74.166,41.3406,"Kiryas Joel, NY"
1813,Lemon Grove,CA,-117.0344,32.7331,"Lemon Grove, CA"
1814,Lindenhurst,NY,-73.371,40.6858,"Lindenhurst, NY"
1815,Immokalee,FL,-81.4251,26.4253,"Immokalee, FL"
1816,McDonough,GA,-84.1509,33.4399,"McDonough, GA"
1817,Bayonet Point,FL,-82.6834,28.3254,"Bayonet Point, FL"
1818,West Linn,OR,-122.6399,45.3669,"West Linn, OR"
1819,Cortland,NY,-76.1784,42.6004,"Cortland, NY"
1820,Lemoore,CA,-119.7983,36.2949,"Lemoore, CA"
1821,Alvin,TX,-95.2933,29.3871,"Alvin, TX"
1822,Temescal Valley,CA,-117.4677,33.7581,"Temescal Valley, CA"
1823,Waynesboro,PA,-77.5822,39.7525,"Waynesboro, PA"
1824,Lebanon,NH,-72.2531,43.6353,"Lebanon, NH"
1825,Thomasville,NC,-80.0807,35.8813,"Thomasville, NC"
1826,Ilchester,MD,-76.7684,39.2187,"Ilchester, MD"
1827,Temple Terrace,FL,-82.3774,28.0437,"Temple Terrace, FL"
1828,Lafayette,CA,-122.1189,37.8919,"Lafayette, CA"
1829,Norco,CA,-117.5499,33.9252,"Norco, CA"
1830,Vernon Hills,IL,-87.9608,42.234,"Vernon Hills, IL"
1831,Pearl,MS,-90.0918,32.273,"Pearl, MS"
1832,Marquette,MI,-87.4082,46.544,"Marquette, MI"
1833,Citrus Park,FL,-82.5628,28.073,"Citrus Park, FL"
1834,Sedalia,MO,-93.2351,38.7042,"Sedalia, MO"
1835,Bessemer,AL,-86.9713,33.3709,"Bessemer, AL"
1836,Batavia,IL,-88.311,41.8479,"Batavia, IL"
1837,Garden City,MI,-83.3412,42.3244,"Garden City, MI"
1838,Chanhassen,MN,-93.5621,44.8544,"Chanhassen, MN"
1839,Cabot,AR,-92.0274,34.9768,"Cabot, AR"
1840,Vicksburg,MS,-90.8868,32.3173,"Vicksburg, MS"
1841,University Park,FL,-80.3684,25.7469,"University Park, FL"
1842,Brawley,CA,-115.5287,32.9783,"Brawley, CA"
1843,Neenah,WI,-88.4764,44.167,"Neenah, WI"
1844,Smithtown,NY,-73.2156,40.8591,"Smithtown, NY"
1845,Snoqualmie,WA,-121.8412,47.5293,"Snoqualmie, WA"
1846,Holbrook,NY,-73.0707,40.7944,"Holbrook, NY"
1847,Troy,OH,-84.2191,40.0436,"Troy, OH"
1848,West Odessa,TX,-102.4996,31.8388,"West Odessa, TX"
1849,Hercules,CA,-122.2564,38.0064,"Hercules, CA"
1850,Lake City,FL,-82.647,30.1901,"Lake City, FL"
1851,Lochearn,MD,-76.7307,39.346,"Lochearn, MD"
1852,Wethersfield,CT,-72.6703,41.7013,"Wethersfield, CT"
1853,Paramus,NJ,-74.0712,40.9455,"Paramus, NJ"
1854,Greenville,TX,-96.1098,33.1116,"Greenville, TX"
1855,Okeechobee,FL,-80.8298,27.2414,"Okeechobee, FL"
1856,Edgewood,MD,-76.2968,39.421,"Edgewood, MD"
1857,Soledad,CA,-121.3426,36.4432,"Soledad, CA"
1858,Muscatine,IA,-91.068,41.4196,"Muscatine, IA"
1859,Boone,NC,-81.6668,36.2111,"Boone, NC"
1860,Moscow,ID,-116.9986,46.7307,"Moscow, ID"
1861,Cliffside Park,NJ,-73.988,40.8221,"Cliffside Park, NJ"
1862,Sebastian,FL,-80.4813,27.7882,"Sebastian, FL"
1863,Northport,AL,-87.5984,33.2589,"Northport, AL"
1864,Natchez,MS,-91.3867,31.5437,"Natchez, MS"
1865,Winchester,KY,-84.1907,38.0017,"Winchester, KY"
1866,Leisure City,FL,-80.4369,25.4937,"Leisure City, FL"
1867,East St. Louis,IL,-90.1304,38.6156,"East St. Louis, IL"
1868,Sachse,TX,-96.5793,32.9726,"Sachse, TX"
1869,Belmont,MA,-71.1795,42.396,"Belmont, MA"
1870,Paris,TX,-95.546,33.6688,"Paris, TX"
1871,Haines City,FL,-81.6157,28.11,"Haines City, FL"
1872,Mason City,IA,-93.1998,43.1487,"Mason City, IA"
1873,Marshalltown,IA,-92.9067,42.0341,"Marshalltown, IA"
1874,Superior,WI,-92.0823,46.6941,"Superior, WI"
1875,Timberwood Park,TX,-98.4838,29.6994,"Timberwood Park, TX"
1876,Medina,OH,-81.8694,41.1358,"Medina, OH"
1877,Conway,SC,-79.0424,33.8399,"Conway, SC"
1878,Barberton,OH,-81.6038,41.0094,"Barberton, OH"
1879,Espa챰ola,NM,-106.0669,36.0041,"Espa챰ola, NM"
1880,Rock Springs,WY,-109.2238,41.5951,"Rock Springs, WY"
1881,Plainview,NY,-73.4732,40.7832,"Plainview, NY"
1882,Mercer Island,WA,-122.232,47.5661,"Mercer Island, WA"
1883,Heber,UT,-111.3984,40.5068,"Heber, UT"
1884,White Bear Lake,MN,-93.015,45.0657,"White Bear Lake, MN"
1885,Laurel,MS,-89.1448,31.6956,"Laurel, MS"
1886,Cave Spring,VA,-80.0073,37.2254,"Cave Spring, VA"
1887,Woodstock,IL,-88.4352,42.3096,"Woodstock, IL"
1888,Ewa Gentry,HI,-158.0262,21.3344,"Ewa Gentry, HI"
1889,Green,OH,-81.4757,40.9483,"Green, OH"
1890,Decatur,GA,-84.2968,33.7711,"Decatur, GA"
1891,Pooler,GA,-81.2568,32.1043,"Pooler, GA"
1892,Madison,MS,-90.13,32.4738,"Madison, MS"
1893,Milford,MA,-71.5167,42.1477,"Milford, MA"
1894,Lancaster,SC,-80.7801,34.7247,"Lancaster, SC"
1895,South Bradenton,FL,-82.5821,27.4612,"South Bradenton, FL"
1896,Laurel,MD,-76.8622,39.095,"Laurel, MD"
1897,Austin,MN,-92.9783,43.6718,"Austin, MN"
1898,Lockport,IL,-88.0292,41.5904,"Lockport, IL"
1899,Franklin,IN,-86.0546,39.4938,"Franklin, IN"
1900,South Salt Lake,UT,-111.8986,40.7056,"South Salt Lake, UT"
1901,Tarpon Springs,FL,-82.7623,28.1493,"Tarpon Springs, FL"
1902,Sevierville,TN,-83.5677,35.8873,"Sevierville, TN"
1903,Bluffton,SC,-80.9316,32.2135,"Bluffton, SC"
1904,Forest Grove,OR,-123.1101,45.5244,"Forest Grove, OR"
1905,Holt,MI,-84.5307,42.6416,"Holt, MI"
1906,South Portland,ME,-70.2895,43.631,"South Portland, ME"
1907,Denison,TX,-96.5807,33.7672,"Denison, TX"
1908,El Cerrito,CA,-122.3025,37.9197,"El Cerrito, CA"
1909,Owatonna,MN,-93.2304,44.0914,"Owatonna, MN"
1910,Sun City West,AZ,-112.3575,33.6693,"Sun City West, AZ"
1911,San Lorenzo,CA,-122.1349,37.6737,"San Lorenzo, CA"
1912,Claremore,OK,-95.6099,36.3143,"Claremore, OK"
1913,Homewood,AL,-86.8092,33.4617,"Homewood, AL"
1914,Dedham,MA,-71.1777,42.2466,"Dedham, MA"
1915,Fort Hood,TX,-97.7797,31.1345,"Fort Hood, TX"
1916,Middle River,MD,-76.4318,39.3345,"Middle River, MD"
1917,Farmington,UT,-111.9065,40.9846,"Farmington, UT"
1918,South Pasadena,CA,-118.1573,34.1103,"South Pasadena, CA"
1919,Forest City,NC,-81.8702,35.3338,"Forest City, NC"
1920,Salem,VA,-80.0555,37.2864,"Salem, VA"
1921,Bainbridge Island,WA,-122.5434,47.6439,"Bainbridge Island, WA"
1922,Valinda,CA,-117.93,34.0401,"Valinda, CA"
1923,Caledonia,WI,-87.8762,42.7986,"Caledonia, WI"
1924,Champlin,MN,-93.3903,45.1702,"Champlin, MN"
1925,Coral Terrace,FL,-80.3049,25.7464,"Coral Terrace, FL"
1926,Edwardsville,IL,-89.9877,38.7923,"Edwardsville, IL"
1927,Fajardo,PR,-65.6592,18.333,"Fajardo, PR"
1928,Palm City,FL,-80.2861,27.1736,"Palm City, FL"
1929,Palm Springs,FL,-80.0968,26.6349,"Palm Springs, FL"
1930,Elk River,MN,-93.567,45.3314,"Elk River, MN"
1931,Rosemount,MN,-93.0662,44.7465,"Rosemount, MN"
1932,Fountain Hills,AZ,-111.7398,33.6073,"Fountain Hills, AZ"
1933,Bay Point,CA,-121.9614,38.0329,"Bay Point, CA"
1934,Belvidere,IL,-88.8649,42.2544,"Belvidere, IL"
1935,Baldwin,NY,-73.6104,40.6634,"Baldwin, NY"
1936,Riverside,OH,-84.1219,39.7836,"Riverside, OH"
1937,Muskego,WI,-88.1291,42.886,"Muskego, WI"
1938,Kingsville,TX,-97.8611,27.5094,"Kingsville, TX"
1939,Hazelwood,MO,-90.3899,38.7931,"Hazelwood, MO"
1940,Scottsbluff,NE,-103.6616,41.8684,"Scottsbluff, NE"
1941,Canyon Lake,TX,-98.2611,29.8761,"Canyon Lake, TX"
1942,Reading,MA,-71.1056,42.5351,"Reading, MA"
1943,Columbine,CO,-105.0694,39.5879,"Columbine, CO"
1944,Juneau,AK,-134.1739,58.4546,"Juneau, AK"
1945,Ridgewood,NJ,-74.1128,40.9822,"Ridgewood, NJ"
1946,Yucca Valley,CA,-116.4216,34.1234,"Yucca Valley, CA"
1947,Branson,MO,-93.2635,36.651,"Branson, MO"
1948,Balch Springs,TX,-96.6151,32.7194,"Balch Springs, TX"
1949,University Park,TX,-96.7937,32.8506,"University Park, TX"
1950,De Pere,WI,-88.0785,44.4309,"De Pere, WI"
1951,Cloverleaf,TX,-95.1724,29.7882,"Cloverleaf, TX"
1952,Marysville,OH,-83.3595,40.2278,"Marysville, OH"
1953,Derby,KS,-97.2552,37.5571,"Derby, KS"
1954,Wilsonville,OR,-122.7705,45.3107,"Wilsonville, OR"
1955,Cata챰o,PR,-66.1388,18.4415,"Cata챰o, PR"
1956,Clayton,NC,-78.4499,35.6591,"Clayton, NC"
1957,Brookings,SD,-96.7859,44.3022,"Brookings, SD"
1958,Riverbank,CA,-120.9402,37.7268,"Riverbank, CA"
